Name,City,Country,IATA,ICAO,Latitude,Longitude,Altitude,Timezone,DST,Tz database time zone,Type,airport_id
Goroka Airport,Goroka,Papua New Guinea,GKA,AYGA,-6.0816898345900015,145.391998291,5282,10.0,U,Pacific/Port_Moresby,airport,0
Madang Airport,Madang,Papua New Guinea,MAG,AYMD,-5.20707988739,145.789001465,20,10.0,U,Pacific/Port_Moresby,airport,1
Mount Hagen Kagamuga Airport,Mount Hagen,Papua New Guinea,HGU,AYMH,-5.826789855957031,144.29600524902344,5388,10.0,U,Pacific/Port_Moresby,airport,2
Nadzab Airport,Nadzab,Papua New Guinea,LAE,AYNZ,-6.569803,146.725977,239,10.0,U,Pacific/Port_Moresby,airport,3
Port Moresby Jacksons International Airport,Port Moresby,Papua New Guinea,POM,AYPY,-9.44338035583496,147.22000122070312,146,10.0,U,Pacific/Port_Moresby,airport,4
Wewak International Airport,Wewak,Papua New Guinea,WWK,AYWK,-3.5838301181800003,143.66900634799998,19,10.0,U,Pacific/Port_Moresby,airport,5
Narsarsuaq Airport,Narssarssuaq,Greenland,UAK,BGBW,61.1604995728,-45.4259986877,112,-3.0,E,America/Godthab,airport,6
Godthaab / Nuuk Airport,Godthaab,Greenland,GOH,BGGH,64.19090271,-51.678100585900005,283,-3.0,E,America/Godthab,airport,7
Kangerlussuaq Airport,Sondrestrom,Greenland,SFJ,BGSF,67.0122218992,-50.7116031647,165,-3.0,E,America/Godthab,airport,8
Thule Air Base,Thule,Greenland,THU,BGTL,76.5311965942,-68.70320129390001,251,-4.0,E,America/Thule,airport,9
Akureyri Airport,Akureyri,Iceland,AEY,BIAR,65.66000366210939,-18.07270050048828,6,0.0,N,Atlantic/Reykjavik,airport,10
Egilsstaðir Airport,Egilsstadir,Iceland,EGS,BIEG,65.28330230712889,-14.401399612426758,76,0.0,N,Atlantic/Reykjavik,airport,11
Hornafjörður Airport,Hofn,Iceland,HFN,BIHN,64.295601,-15.2272,24,0.0,N,Atlantic/Reykjavik,airport,12
Húsavík Airport,Husavik,Iceland,HZK,BIHU,65.952301,-17.426001,48,0.0,N,Atlantic/Reykjavik,airport,13
Ísafjörður Airport,Isafjordur,Iceland,IFJ,BIIS,66.05809783935547,-23.13529968261719,8,0.0,N,Atlantic/Reykjavik,airport,14
Keflavik International Airport,Keflavik,Iceland,KEF,BIKF,63.985000610352,-22.605600357056,171,0.0,N,Atlantic/Reykjavik,airport,15
Patreksfjörður Airport,Patreksfjordur,Iceland,PFJ,BIPA,65.555801,-23.965,11,0.0,N,Atlantic/Reykjavik,airport,16
Reykjavik Airport,Reykjavik,Iceland,RKV,BIRK,64.1299972534,-21.9405994415,48,0.0,N,Atlantic/Reykjavik,airport,17
Siglufjörður Airport,Siglufjordur,Iceland,SIJ,BISI,66.133301,-18.9167,10,0.0,N,Atlantic/Reykjavik,airport,18
Vestmannaeyjar Airport,Vestmannaeyjar,Iceland,VEY,BIVM,63.42430114746094,-20.27890014648437,326,0.0,N,Atlantic/Reykjavik,airport,19
Sault Ste Marie Airport,Sault Sainte Marie,Canada,YAM,CYAM,46.48500061035156,-84.5093994140625,630,-5.0,A,America/Toronto,airport,20
Winnipeg / St. Andrews Airport,Winnipeg,Canada,\N,CYAV,50.0564002991,-97.0325012207,760,-6.0,A,America/Winnipeg,airport,21
Halifax / CFB Shearwater Heliport,Halifax,Canada,\N,CYAW,44.639702,-63.499401,144,-4.0,A,America/Halifax,airport,22
St. Anthony Airport,St. Anthony,Canada,YAY,CYAY,51.391899108900006,-56.083099365200006,108,-3.5,A,America/St_Johns,airport,23
Tofino / Long Beach Airport,Tofino,Canada,YAZ,CYAZ,49.079833,-125.775583,80,-8.0,A,America/Vancouver,airport,24
Kugaaruk Airport,Pelly Bay,Canada,YBB,CYBB,68.534401,-89.808098,56,-7.0,A,America/Edmonton,airport,25
Baie Comeau Airport,Baie Comeau,Canada,YBC,CYBC,49.13249969482422,-68.20439910888672,71,-5.0,A,America/Toronto,airport,26
CFB Bagotville,Bagotville,Canada,YBG,CYBG,48.33060073852539,-70.99639892578125,522,-5.0,A,America/Toronto,airport,27
Baker Lake Airport,Baker Lake,Canada,YBK,CYBK,64.29889678960001,-96.077796936,59,-6.0,A,America/Winnipeg,airport,28
Campbell River Airport,Campbell River,Canada,YBL,CYBL,49.95080184936523,-125.27100372314452,346,-8.0,A,America/Vancouver,airport,29
Brandon Municipal Airport,Brandon,Canada,YBR,CYBR,49.91,-99.951897,1343,-6.0,A,America/Winnipeg,airport,30
Cambridge Bay Airport,Cambridge Bay,Canada,YCB,CYCB,69.1081008911,-105.138000488,90,-7.0,A,America/Edmonton,airport,31
Nanaimo Airport,Nanaimo,Canada,YCD,CYCD,49.0549702249,-123.869862556,92,-8.0,A,America/Vancouver,airport,32
Castlegar/West Kootenay Regional Airport,Castlegar,Canada,YCG,CYCG,49.2963981628,-117.632003784,1624,-8.0,A,America/Vancouver,airport,33
Miramichi Airport,Chatham,Canada,YCH,CYCH,47.007801,-65.449203,108,-4.0,A,America/Halifax,airport,34
Charlo Airport,Charlo,Canada,YCL,CYCL,47.990799,-66.330299,132,-4.0,A,America/Halifax,airport,35
Kugluktuk Airport,Coppermine,Canada,YCO,CYCO,67.816704,-115.143997,74,-7.0,A,America/Edmonton,airport,36
Coronation Airport,Coronation,Canada,YCT,CYCT,52.0750007629,-111.444999695,2595,-7.0,A,America/Edmonton,airport,37
Chilliwack Airport,Chilliwack,Canada,YCW,CYCW,49.1528015137,-121.939002991,32,-8.0,A,America/Vancouver,airport,38
Clyde River Airport,Clyde River,Canada,YCY,CYCY,70.4860992432,-68.5167007446,87,-5.0,A,America/Toronto,airport,39
Coral Harbour Airport,Coral Harbour,Canada,YZS,CYZS,64.1932983398,-83.3593978882,210,-5.0,A,America/Coral_Harbour,airport,40
Dawson City Airport,Dawson,Canada,YDA,CYDA,64.04309844970703,-139.12800598144528,1215,-8.0,A,America/Vancouver,airport,41
Burwash Airport,Burwash,Canada,YDB,CYDB,61.37110137939453,-139.04100036621094,2647,-8.0,A,America/Vancouver,airport,42
Princeton Airport,Princeton,Canada,\N,CYDC,49.4681015015,-120.511001587,2298,-8.0,A,America/Vancouver,airport,43
Deer Lake Airport,Deer Lake,Canada,YDF,CYDF,49.21080017089844,-57.39139938354492,72,-3.5,A,America/St_Johns,airport,44
Dease Lake Airport,Dease Lake,Canada,YDL,CYDL,58.4221992493,-130.031997681,2600,-8.0,A,America/Vancouver,airport,45
Dauphin Barker Airport,Dauphin,Canada,YDN,CYDN,51.10079956054688,-100.052001953125,999,-6.0,A,America/Winnipeg,airport,46
Dawson Creek Airport,Dawson Creek,Canada,YDQ,CYDQ,55.7422981262207,-120.18299865722656,2148,-7.0,A,America/Dawson_Creek,airport,47
Edmonton International Airport,Edmonton,Canada,YEG,CYEG,53.3097000122,-113.580001831,2373,-7.0,A,America/Edmonton,airport,48
Arviat Airport,Eskimo Point,Canada,YEK,CYEK,61.0942001343,-94.0708007812,32,-6.0,A,America/Winnipeg,airport,49
Estevan Airport,Estevan,Canada,YEN,CYEN,49.210300445600005,-102.966003418,1905,-6.0,N,America/Regina,airport,50
Edson Airport,Edson,Canada,YET,CYET,53.5788993835,-116.464996338,3043,-7.0,A,America/Edmonton,airport,51
Eureka Airport,Eureka,Canada,YEU,CYEU,79.9946975708,-85.814201355,256,-6.0,A,America/Winnipeg,airport,52
Inuvik Mike Zubko Airport,Inuvik,Canada,YEV,CYEV,68.30419921880001,-133.483001709,224,-7.0,A,America/Edmonton,airport,53
Iqaluit Airport,Iqaluit,Canada,YFB,CYFB,63.756402,-68.555801,110,-5.0,A,America/Toronto,airport,54
Fredericton Airport,Fredericton,Canada,YFC,CYFC,45.86890029907226,-66.53720092773439,68,-4.0,A,America/Halifax,airport,55
Forestville Airport,Forestville,Canada,YFE,CYFE,48.74610137939453,-69.09719848632811,293,-5.0,A,America/Toronto,airport,56
Flin Flon Airport,Flin Flon,Canada,YFO,CYFO,54.6781005859375,-101.68199920654295,997,-6.0,A,America/Winnipeg,airport,57
Fort Resolution Airport,Fort Resolution,Canada,YFR,CYFR,61.1808013916,-113.690002441,526,-7.0,A,America/Edmonton,airport,58
Fort Simpson Airport,Fort Simpson,Canada,YFS,CYFS,61.76020050048828,-121.23699951171876,555,-7.0,A,America/Edmonton,airport,59
Kingston Norman Rogers Airport,Kingston,Canada,YGK,CYGK,44.22529983520508,-76.5969009399414,305,-5.0,A,America/Toronto,airport,60
La Grande Rivière Airport,La Grande Riviere,Canada,YGL,CYGL,53.62530136108398,-77.7042007446289,639,-5.0,A,America/Toronto,airport,61
Gaspé (Michel-Pouliot) Airport,Gaspe,Canada,YGP,CYGP,48.7752990723,-64.4785995483,112,-5.0,A,America/Toronto,airport,62
Geraldton Greenstone Regional Airport,Geraldton,Canada,YGQ,CYGQ,49.77830123901367,-86.93939971923828,1144,-5.0,A,America/Toronto,airport,63
Îles-de-la-Madeleine Airport,Iles De La Madeleine,Canada,YGR,CYGR,47.42470169067383,-61.778099060058594,35,-5.0,A,America/Toronto,airport,64
Hudson Bay Airport,Hudson Bay,Canada,YHB,CYHB,52.8166999817,-102.310997009,1175,-6.0,N,America/Regina,airport,65
Dryden Regional Airport,Dryden,Canada,YHD,CYHD,49.831699,-92.744202,1354,-6.0,A,America/Winnipeg,airport,66
Ulukhaktok Holman Airport,Holman Island,Canada,YHI,CYHI,70.76280212402344,-117.80599975585938,117,-7.0,A,America/Edmonton,airport,67
Gjoa Haven Airport,Gjoa Haven,Canada,YHK,CYHK,68.635597229,-95.8497009277,152,-7.0,A,America/Edmonton,airport,68
John C. Munro Hamilton International Airport,Hamilton,Canada,YHM,CYHM,43.1735992432,-79.93499755859999,780,-5.0,A,America/Toronto,airport,69
Montréal / Saint-Hubert Airport,Montreal,Canada,YHU,CYHU,45.5175018311,-73.4169006348,90,-5.0,A,America/Toronto,airport,70
Hay River / Merlyn Carter Airport,Hay River,Canada,YHY,CYHY,60.8396987915,-115.782997131,541,-7.0,A,America/Edmonton,airport,71
Halifax / Stanfield International Airport,Halifax,Canada,YHZ,CYHZ,44.8807983398,-63.508598327600005,477,-4.0,A,America/Halifax,airport,72
Atikokan Municipal Airport,Atikokan,Canada,YIB,CYIB,48.7738990784,-91.6386032104,1408,-5.0,A,America/Coral_Harbour,airport,73
Pond Inlet Airport,Pond Inlet,Canada,YIO,CYIO,72.6832962036,-77.9666976929,181,-5.0,A,America/Toronto,airport,74
St Jean Airport,St. Jean,Canada,YJN,CYJN,45.29439926147461,-73.28109741210938,136,-5.0,A,America/Toronto,airport,75
Stephenville Airport,Stephenville,Canada,YJT,CYJT,48.5442008972168,-58.54999923706055,84,-3.5,A,America/St_Johns,airport,76
Kamloops Airport,Kamloops,Canada,YKA,CYKA,50.7022018433,-120.444000244,1133,-8.0,A,America/Vancouver,airport,77
Waterloo Airport,Waterloo,Canada,YKF,CYKF,43.4608001709,-80.3786010742,1055,-5.0,A,America/Toronto,airport,78
Schefferville Airport,Schefferville,Canada,YKL,CYKL,54.80530166625977,-66.8052978515625,1709,-5.0,A,America/Toronto,airport,79
Kindersley Airport,Kindersley,Canada,YKY,CYKY,51.5175018311,-109.180999756,2277,-6.0,N,America/Regina,airport,80
Buttonville Municipal Airport,Toronto,Canada,YKZ,CYKZ,43.86220169067383,-79.37000274658203,650,-5.0,A,America/Toronto,airport,81
Chapleau Airport,Chapleau,Canada,YLD,CYLD,47.81999969482422,-83.3467025756836,1470,-5.0,A,America/Toronto,airport,82
Meadow Lake Airport,Meadow Lake,Canada,YLJ,CYLJ,54.12530136108398,-108.52300262451172,1576,-6.0,N,America/Regina,airport,83
Lloydminster Airport,Lloydminster,Canada,YLL,CYLL,53.30920028686523,-110.072998046875,2193,-7.0,A,America/Edmonton,airport,84
Alert Airport,Alert,Canada,YLT,CYLT,82.51779937740001,-62.2806015015,100,-5.0,A,America/Toronto,airport,85
Kelowna International Airport,Kelowna,Canada,YLW,CYLW,49.9561004639,-119.377998352,1421,-8.0,A,America/Vancouver,airport,86
Mayo Airport,Mayo,Canada,YMA,CYMA,63.61640167236328,-135.86799621582028,1653,-8.0,A,America/Vancouver,airport,87
Moose Jaw Air Vice Marshal C. M. McEwen Airport,Moose Jaw,Canada,YMJ,CYMJ,50.330299377441406,-105.55899810791016,1892,-6.0,N,America/Regina,airport,88
Fort McMurray Airport,Fort Mcmurray,Canada,YMM,CYMM,56.653301239,-111.222000122,1211,-7.0,A,America/Edmonton,airport,89
Moosonee Airport,Moosonee,Canada,YMO,CYMO,51.29109954833984,-80.60780334472656,30,-5.0,A,America/Toronto,airport,90
Maniwaki Airport,Maniwaki,Canada,YMW,CYMW,46.272800445600005,-75.9906005859,656,-5.0,A,America/Toronto,airport,91
Montreal International (Mirabel) Airport,Montreal,Canada,YMX,CYMX,45.679501,-74.038696,270,-5.0,A,America/Toronto,airport,92
Natashquan Airport,Natashquan,Canada,YNA,CYNA,50.18999862670898,-61.78919982910156,39,-5.0,A,America/Toronto,airport,93
Ottawa / Gatineau Airport,Gatineau,Canada,YND,CYND,45.5217018127,-75.5635986328,211,-5.0,A,America/Toronto,airport,94
Matagami Airport,Matagami,Canada,YNM,CYNM,49.76169967651367,-77.80280303955078,918,-5.0,A,America/Toronto,airport,95
Old Crow Airport,Old Crow,Canada,YOC,CYOC,67.57060241699219,-139.83900451660156,824,-8.0,A,America/Vancouver,airport,96
CFB Cold Lake,Cold Lake,Canada,YOD,CYOD,54.40499877929688,-110.27899932861328,1775,-7.0,A,America/Edmonton,airport,97
High Level Airport,High Level,Canada,YOJ,CYOJ,58.62139892578125,-117.16500091552734,1110,-7.0,A,America/Edmonton,airport,98
Ottawa Macdonald-Cartier International Airport,Ottawa,Canada,YOW,CYOW,45.3224983215332,-75.66919708251953,374,-5.0,A,America/Toronto,airport,99
Prince Albert Glass Field,Prince Albert,Canada,YPA,CYPA,53.2141990662,-105.672996521,1405,-6.0,N,America/Regina,airport,100
Peace River Airport,Peace River,Canada,YPE,CYPE,56.226898,-117.446999,1873,-7.0,A,America/Edmonton,airport,101
Southport Airport,Portage-la-prairie,Canada,YPG,CYPG,49.903099,-98.273817,885,-6.0,A,America/Winnipeg,airport,102
Pitt Meadows Airport,Pitt Meadows,Canada,\N,CYPK,49.21609878540039,-122.70999908447266,11,-8.0,A,America/Vancouver,airport,103
Pickle Lake Airport,Pickle Lake,Canada,YPL,CYPL,51.4463996887207,-90.21420288085938,1267,-5.0,A,America/Coral_Harbour,airport,104
Port Menier Airport,Port Menier,Canada,YPN,CYPN,49.83639907836914,-64.28859710693361,167,-5.0,A,America/Toronto,airport,105
Peterborough Airport,Peterborough,Canada,YPQ,CYPQ,44.22999954223633,-78.36329650878906,628,-5.0,A,America/Toronto,airport,106
Prince Rupert Airport,Prince Pupert,Canada,YPR,CYPR,54.2860984802,-130.445007324,116,-8.0,A,America/Vancouver,airport,107
Fort Chipewyan Airport,Fort Chipewyan,Canada,YPY,CYPY,58.7672004699707,-111.11699676513672,761,-7.0,A,America/Edmonton,airport,108
Muskoka Airport,Muskoka,Canada,YQA,CYQA,44.974700927734375,-79.30329895019531,925,-5.0,A,America/Toronto,airport,109
Quebec Jean Lesage International Airport,Quebec,Canada,YQB,CYQB,46.7911,-71.393303,244,-5.0,A,America/Toronto,airport,110
Red Deer Regional Airport,Red Deer Industrial,Canada,YQF,CYQF,52.18220138549805,-113.8939971923828,2968,-7.0,A,America/Edmonton,airport,111
Windsor Airport,Windsor,Canada,YQG,CYQG,42.27560043334961,-82.95559692382812,622,-5.0,A,America/Toronto,airport,112
Watson Lake Airport,Watson Lake,Canada,YQH,CYQH,60.11640167236328,-128.82200622558594,2255,-8.0,A,America/Vancouver,airport,113
Kenora Airport,Kenora,Canada,YQK,CYQK,49.78829956054688,-94.36309814453124,1332,-6.0,A,America/Winnipeg,airport,114
Lethbridge County Airport,Lethbridge,Canada,YQL,CYQL,49.6302986145,-112.800003052,3048,-7.0,A,America/Edmonton,airport,115
Greater Moncton International Airport,Moncton,Canada,YQM,CYQM,46.11220169067383,-64.67859649658203,232,-4.0,A,America/Halifax,airport,116
Comox Airport,Comox,Canada,YQQ,CYQQ,49.71080017089844,-124.88700103759766,84,-8.0,A,America/Vancouver,airport,117
Regina International Airport,Regina,Canada,YQR,CYQR,50.43190002441406,-104.66600036621094,1894,-6.0,N,America/Regina,airport,118
Thunder Bay Airport,Thunder Bay,Canada,YQT,CYQT,48.37189865112305,-89.32389831542969,653,-5.0,A,America/Toronto,airport,119
Grande Prairie Airport,Grande Prairie,Canada,YQU,CYQU,55.1796989441,-118.885002136,2195,-7.0,A,America/Edmonton,airport,120
Yorkton Municipal Airport,Yorkton,Canada,YQV,CYQV,51.26470184326172,-102.46199798583984,1635,-6.0,N,America/Regina,airport,121
North Battleford Airport,North Battleford,Canada,YQW,CYQW,52.76919937133789,-108.24400329589844,1799,-6.0,N,America/Regina,airport,122
Gander International Airport,Gander,Canada,YQX,CYQX,48.9369010925293,-54.56809997558594,496,-3.5,A,America/St_Johns,airport,123
Sydney / J.A. Douglas McCurdy Airport,Sydney,Canada,YQY,CYQY,46.1614,-60.047798,203,-4.0,A,America/Halifax,airport,124
Quesnel Airport,Quesnel,Canada,YQZ,CYQZ,53.026100158691406,-122.51000213623048,1789,-8.0,A,America/Vancouver,airport,125
Resolute Bay Airport,Resolute,Canada,YRB,CYRB,74.71690368649999,-94.9693984985,215,-6.0,A,America/Winnipeg,airport,126
Rivière-du-Loup Airport,Riviere Du Loup,Canada,YRI,CYRI,47.76440048217773,-69.58470153808594,427,-5.0,A,America/Toronto,airport,127
Roberval Airport,Roberval,Canada,YRJ,CYRJ,48.52000045776367,-72.2656021118164,586,-5.0,A,America/Toronto,airport,128
Rocky Mountain House Airport,Rocky Mountain House,Canada,YRM,CYRM,52.4296989441,-114.903999329,3244,-7.0,A,America/Edmonton,airport,129
Rankin Inlet Airport,Rankin Inlet,Canada,YRT,CYRT,62.811401367200006,-92.1157989502,94,-6.0,A,America/Winnipeg,airport,130
Sudbury Airport,Sudbury,Canada,YSB,CYSB,46.625,-80.79889678955078,1141,-5.0,A,America/Toronto,airport,131
Sherbrooke Airport,Sherbrooke,Canada,YSC,CYSC,45.4385986328125,-71.69139862060547,792,-5.0,A,America/Toronto,airport,132
Saint John Airport,St. John,Canada,YSJ,CYSJ,45.31610107421875,-65.89029693603516,357,-4.0,A,America/Halifax,airport,133
Fort Smith Airport,Fort Smith,Canada,YSM,CYSM,60.020301818847656,-111.96199798583984,671,-7.0,A,America/Edmonton,airport,134
Nanisivik Airport,Nanisivik,Canada,YSR,CYSR,72.982201,-84.613602,2106,-5.0,A,America/Toronto,airport,135
Summerside Airport,Summerside,Canada,YSU,CYSU,46.44060134887695,-63.83359909057617,56,-4.0,A,America/Halifax,airport,136
Sachs Harbour (David Nasogaluak Jr. Saaryuaq) Airport,Sachs Harbour,Canada,YSY,CYSY,71.9938964844,-125.242996216,282,-7.0,A,America/Edmonton,airport,137
Cape Dorset Airport,Cape Dorset,Canada,YTE,CYTE,64.2300033569,-76.5267028809,164,-5.0,A,America/Toronto,airport,138
Thompson Airport,Thompson,Canada,YTH,CYTH,55.80110168457031,-97.86419677734376,729,-6.0,A,America/Winnipeg,airport,139
CFB Trenton,Trenton,Canada,YTR,CYTR,44.118900299072266,-77.5280990600586,283,-5.0,A,America/Toronto,airport,140
Timmins/Victor M. Power,Timmins,Canada,YTS,CYTS,48.5696983337,-81.376701355,967,-5.0,A,America/Toronto,airport,141
Billy Bishop Toronto City Centre Airport,Toronto,Canada,YTZ,CYTZ,43.627499,-79.396202,252,-5.0,A,America/Toronto,airport,142
Tuktoyaktuk Airport,Tuktoyaktuk,Canada,YUB,CYUB,69.43329620361328,-133.0260009765625,15,-7.0,A,America/Edmonton,airport,143
Montreal / Pierre Elliott Trudeau International Airport,Montreal,Canada,YUL,CYUL,45.4706001282,-73.7407989502,118,-5.0,A,America/Toronto,airport,144
Repulse Bay Airport,Repulse Bay,Canada,YUT,CYUT,66.5214004517,-86.22470092770003,80,-6.0,A,America/Winnipeg,airport,145
Hall Beach Airport,Hall Beach,Canada,YUX,CYUX,68.77610015869999,-81.2425,30,-5.0,A,America/Toronto,airport,146
Rouyn Noranda Airport,Rouyn,Canada,YUY,CYUY,48.20610046386719,-78.83560180664062,988,-5.0,A,America/Toronto,airport,147
La Ronge Airport,La Ronge,Canada,YVC,CYVC,55.1514015198,-105.262001038,1242,-6.0,N,America/Regina,airport,148
Vermilion Airport,Vermillion,Canada,YVG,CYVG,53.3558006287,-110.823997498,2025,-7.0,A,America/Edmonton,airport,149
Qikiqtarjuaq Airport,Broughton Island,Canada,YVM,CYVM,67.5457992554,-64.03140258789999,21,-5.0,A,America/Toronto,airport,150
Val-d'Or Airport,Val D'or,Canada,YVO,CYVO,48.0532989502,-77.7827987671,1107,-5.0,A,America/Toronto,airport,151
Kuujjuaq Airport,Quujjuaq,Canada,YVP,CYVP,58.09609985351562,-68.42690277099611,129,-5.0,A,America/Toronto,airport,152
Norman Wells Airport,Norman Wells,Canada,YVQ,CYVQ,65.28160095214844,-126.7979965209961,238,-7.0,A,America/Edmonton,airport,153
Vancouver International Airport,Vancouver,Canada,YVR,CYVR,49.193901062,-123.183998108,14,-8.0,A,America/Vancouver,airport,154
Buffalo Narrows Airport,Buffalo Narrows,Canada,YVT,CYVT,55.8418998718,-108.417999268,1423,-6.0,N,America/Regina,airport,155
Wiarton Airport,Wiarton,Canada,YVV,CYVV,44.7458,-81.107201,729,-5.0,A,America/Toronto,airport,156
Petawawa Airport,Petawawa,Canada,YWA,CYWA,45.95220184326172,-77.31919860839844,427,-5.0,A,America/Toronto,airport,157
Winnipeg / James Armstrong Richardson International Airport,Winnipeg,Canada,YWG,CYWG,49.9099998474,-97.2398986816,783,-6.0,A,America/Winnipeg,airport,158
Wabush Airport,Wabush,Canada,YWK,CYWK,52.92190170288086,-66.86440277099611,1808,-4.0,A,America/Halifax,airport,159
Williams Lake Airport,Williams Lake,Canada,YWL,CYWL,52.1831016541,-122.054000854,3085,-8.0,A,America/Vancouver,airport,160
Wrigley Airport,Wrigley,Canada,YWY,CYWY,63.20940017700195,-123.43699645996094,489,-7.0,A,America/Edmonton,airport,161
Cranbrook/Canadian Rockies International Airport,Cranbrook,Canada,YXC,CYXC,49.610801696777,-115.78199768066,3082,-7.0,A,America/Edmonton,airport,162
Edmonton City Centre (Blatchford Field) Airport,Edmonton,Canada,YXD,CYXD,53.5724983215,-113.521003723,2202,-7.0,A,America/Edmonton,airport,163
Saskatoon John G. Diefenbaker International Airport,Saskatoon,Canada,YXE,CYXE,52.17079925537109,-106.6999969482422,1653,-6.0,N,America/Regina,airport,164
Medicine Hat Airport,Medicine Hat,Canada,YXH,CYXH,50.01890182495117,-110.72100067138672,2352,-7.0,A,America/Edmonton,airport,165
Fort St John Airport,Fort Saint John,Canada,YXJ,CYXJ,56.23809814453125,-120.73999786376952,2280,-7.0,A,America/Dawson_Creek,airport,166
Sioux Lookout Airport,Sioux Lookout,Canada,YXL,CYXL,50.11389923095703,-91.9052963256836,1258,-6.0,A,America/Winnipeg,airport,167
Pangnirtung Airport,Pangnirtung,Canada,YXP,CYXP,66.1449966431,-65.71360015869999,75,-5.0,A,America/Toronto,airport,168
Earlton (Timiskaming Regional) Airport,Earlton,Canada,YXR,CYXR,47.6974006546,-79.84734535220001,800,-5.0,A,America/Toronto,airport,169
Prince George Airport,Prince George,Canada,YXS,CYXS,53.8894004822,-122.679000854,2267,-8.0,A,America/Vancouver,airport,170
Northwest Regional Airport Terrace-Kitimat,Terrace,Canada,YXT,CYXT,54.468498,-128.576009,713,-8.0,A,America/Vancouver,airport,171
London Airport,London,Canada,YXU,CYXU,43.035599,-81.1539,912,-5.0,A,America/Toronto,airport,172
Abbotsford Airport,Abbotsford,Canada,YXX,CYXX,49.02529907226562,-122.36100006103516,195,-8.0,A,America/Vancouver,airport,173
Whitehorse / Erik Nielsen International Airport,Whitehorse,Canada,YXY,CYXY,60.7095985413,-135.067001343,2317,-8.0,A,America/Vancouver,airport,174
North Bay Jack Garland Airport,North Bay,Canada,YYB,CYYB,46.363602,-79.422798,1215,-5.0,A,America/Toronto,airport,175
Calgary International Airport,Calgary,Canada,YYC,CYYC,51.113899231000005,-114.019996643,3557,-7.0,A,America/Edmonton,airport,176
Smithers Airport,Smithers,Canada,YYD,CYYD,54.82469940185547,-127.18299865722656,1712,-8.0,A,America/Vancouver,airport,177
Fort Nelson Airport,Fort Nelson,Canada,YYE,CYYE,58.8363990784,-122.597000122,1253,-8.0,A,America/Vancouver,airport,178
Penticton Airport,Penticton,Canada,YYF,CYYF,49.46310043334961,-119.60199737548828,1129,-8.0,A,America/Vancouver,airport,179
Charlottetown Airport,Charlottetown,Canada,YYG,CYYG,46.290000915527344,-63.12110137939453,160,-4.0,A,America/Halifax,airport,180
Taloyoak Airport,Spence Bay,Canada,YYH,CYYH,69.5466995239,-93.5766983032,92,-7.0,A,America/Edmonton,airport,181
Victoria International Airport,Victoria,Canada,YYJ,CYYJ,48.646900177,-123.426002502,63,-8.0,A,America/Vancouver,airport,182
Lynn Lake Airport,Lynn Lake,Canada,YYL,CYYL,56.86389923095703,-101.07599639892578,1170,-6.0,A,America/Winnipeg,airport,183
Swift Current Airport,Swift Current,Canada,YYN,CYYN,50.2919006348,-107.691001892,2680,-6.0,N,America/Regina,airport,184
Churchill Airport,Churchill,Canada,YYQ,CYYQ,58.73920059204102,-94.06500244140624,94,-6.0,A,America/Winnipeg,airport,185
Goose Bay Airport,Goose Bay,Canada,YYR,CYYR,53.3191986084,-60.425800323500006,160,-4.0,A,America/Halifax,airport,186
St. John's International Airport,St. John's,Canada,YYT,CYYT,47.618598938000005,-52.7518997192,461,-3.5,A,America/St_Johns,airport,187
Kapuskasing Airport,Kapuskasing,Canada,YYU,CYYU,49.41389846801758,-82.46749877929688,743,-5.0,A,America/Toronto,airport,188
Armstrong Airport,Armstrong,Canada,YYW,CYYW,50.29029846191406,-88.90969848632812,1058,-5.0,A,America/Toronto,airport,189
Mont Joli Airport,Mont Joli,Canada,YYY,CYYY,48.60860061645508,-68.20809936523439,172,-5.0,A,America/Toronto,airport,190
Lester B. Pearson International Airport,Toronto,Canada,YYZ,CYYZ,43.6772003174,-79.63059997559999,569,-5.0,A,America/Toronto,airport,191
Downsview Airport,Toronto,Canada,YZD,CYZD,43.74250030517578,-79.4655990600586,652,-5.0,A,America/Toronto,airport,192
Gore Bay Manitoulin Airport,Gore Bay,Canada,YZE,CYZE,45.88529968261719,-82.56780242919922,635,-5.0,A,America/Toronto,airport,193
Yellowknife Airport,Yellowknife,Canada,YZF,CYZF,62.46279907226562,-114.44000244140624,675,-7.0,A,America/Edmonton,airport,194
Slave Lake Airport,Slave Lake,Canada,YZH,CYZH,55.2930984497,-114.777000427,1912,-7.0,A,America/Edmonton,airport,195
Sandspit Airport,Sandspit,Canada,YZP,CYZP,53.25429916379999,-131.813995361,21,-8.0,A,America/Vancouver,airport,196
Chris Hadfield Airport,Sarnia,Canada,YZR,CYZR,42.9994010925293,-82.30889892578125,594,-5.0,A,America/Toronto,airport,197
Port Hardy Airport,Port Hardy,Canada,YZT,CYZT,50.68059921264648,-127.36699676513672,71,-8.0,A,America/Vancouver,airport,198
Whitecourt Airport,Whitecourt,Canada,YZU,CYZU,54.14390182495117,-115.78700256347656,2567,-7.0,A,America/Edmonton,airport,199
Sept-Îles Airport,Sept-iles,Canada,YZV,CYZV,50.22330093383789,-66.26560211181639,180,-5.0,A,America/Toronto,airport,200
Teslin Airport,Teslin,Canada,YZW,CYZW,60.17279815673828,-132.74299621582028,2313,-8.0,A,America/Vancouver,airport,201
CFB Greenwood,Greenwood,Canada,YZX,CYZX,44.98440170288086,-64.91690063476561,92,-4.0,A,America/Halifax,airport,202
Faro Airport,Faro,Canada,ZFA,CZFA,62.20750045776367,-133.37600708007812,2351,-8.0,A,America/Vancouver,airport,203
Fort Mcpherson Airport,Fort Mcpherson,Canada,ZFM,CZFM,67.40750122070311,-134.86099243164062,116,-7.0,A,America/Edmonton,airport,204
Blida Airport,Blida,Algeria,QLD,DAAB,36.50360107421875,2.814169883728028,535,1.0,N,Africa/Algiers,airport,205
Bou Saada Airport,Bou Saada,Algeria,BUJ,DAAD,35.33250045776367,4.206389904022217,1506,1.0,N,Africa/Algiers,airport,206
Soummam Airport,Bejaja,Algeria,BJA,DAAE,36.712001800500005,5.0699200630200005,20,1.0,N,Africa/Algiers,airport,207
Houari Boumediene Airport,Algier,Algeria,ALG,DAAG,36.69100189208984,3.215409994125366,82,1.0,N,Africa/Algiers,airport,208
Djanet Inedbirene Airport,Djanet,Algeria,DJG,DAAJ,24.292801,9.45244,3176,1.0,N,Africa/Algiers,airport,209
Boufarik Airport,Boufarik,Algeria,\N,DAAK,36.545799,2.87611,335,1.0,N,Africa/Algiers,airport,210
Reggane Airport,Reggan,Algeria,\N,DAAN,26.7101,0.285647,955,1.0,N,Africa/Algiers,airport,211
Illizi Takhamalt Airport,Illizi,Algeria,VVZ,DAAP,26.7234992981,8.62265014648,1778,1.0,N,Africa/Algiers,airport,212
Ain Oussera Airport,Ain Oussera,Algeria,\N,DAAQ,35.52539825439453,2.8787100315093994,2132,1.0,N,Africa/Algiers,airport,213
Aguenar – Hadj Bey Akhamok Airport,Tamanrasset,Algeria,TMR,DAAT,22.8115005493,5.45107984543,4518,1.0,N,Africa/Algiers,airport,214
Jijel Ferhat Abbas Airport,Jijel,Algeria,GJL,DAAV,36.7951011658,5.873610019680001,36,1.0,N,Africa/Algiers,airport,215
Mecheria Airport,Mecheria,Algeria,MZW,DAAY,33.535900116,-0.242353007197,3855,1.0,N,Africa/Algiers,airport,216
Relizane Airport,Relizane,Algeria,\N,DAAZ,35.752201,0.626272,282,1.0,N,Africa/Algiers,airport,217
Rabah Bitat Airport,Annaba,Algeria,AAE,DABB,36.822201,7.809174,16,1.0,N,Africa/Algiers,airport,218
Mohamed Boudiaf International Airport,Constantine,Algeria,CZL,DABC,36.2760009765625,6.620389938354492,2265,1.0,N,Africa/Algiers,airport,219
Cheikh Larbi Tébessi Airport,Tebessa,Algeria,TEE,DABS,35.4315986633,8.120719909670001,2661,1.0,N,Africa/Algiers,airport,220
Hassi R'Mel Airport,Tilrempt,Algeria,HRM,DAFH,32.93040084838867,3.311539888381958,2540,1.0,N,Africa/Algiers,airport,221
Bou Chekif Airport,Tiaret,Algeria,TID,DAOB,35.3410987854,1.4631500244100002,3245,1.0,N,Africa/Algiers,airport,222
Bou Sfer Airport,Bou Sfer,Algeria,\N,DAOE,35.73540115356445,-0.8053889870643616,187,1.0,N,Africa/Algiers,airport,223
Tindouf Airport,Tindouf,Algeria,TIN,DAOF,27.7003993988,-8.167099952700001,1453,1.0,N,Africa/Algiers,airport,224
Ech Cheliff Airport,Ech-cheliff,Algeria,CFK,DAOI,36.212699890100005,1.33176994324,463,1.0,N,Africa/Algiers,airport,225
Tafaraoui Airport,Oran,Algeria,TAF,DAOL,35.54240036010742,-0.5322780013084412,367,1.0,N,Africa/Algiers,airport,226
Zenata – Messali El Hadj Airport,Tlemcen,Algeria,TLM,DAON,35.0167007446,-1.45000004768,814,1.0,N,Africa/Algiers,airport,227
Es Senia Airport,Oran,Algeria,ORN,DAOO,35.6239013672,-0.6211829781529999,295,1.0,N,Africa/Algiers,airport,228
Sidi Bel Abbes Airport,Sidi Bel Abbes,Algeria,BFW,DAOS,35.1717987061,-0.593275010586,1614,1.0,N,Africa/Algiers,airport,229
Ghriss Airport,Ghriss,Algeria,MUW,DAOV,35.207698822021484,0.1471419930458068,1686,1.0,N,Africa/Algiers,airport,230
Touat Cheikh Sidi Mohamed Belkebir Airport,Adrar,Algeria,AZR,DAUA,27.83760070800781,-0.1864140033721924,919,1.0,N,Africa/Algiers,airport,231
Biskra Airport,Biskra,Algeria,BSK,DAUB,34.7933006287,5.73823022842,289,1.0,N,Africa/Algiers,airport,232
El Golea Airport,El Golea,Algeria,ELG,DAUE,30.5713005065918,2.8595900535583496,1306,1.0,N,Africa/Algiers,airport,233
Noumérat - Moufdi Zakaria Airport,Ghardaia,Algeria,GHA,DAUG,32.38410186767578,3.794110059738159,1512,1.0,N,Africa/Algiers,airport,234
Oued Irara Airport,Hassi Messaoud,Algeria,HME,DAUH,31.673000335700003,6.140439987180001,463,1.0,N,Africa/Algiers,airport,235
In Salah Airport,In Salah,Algeria,INZ,DAUI,27.2509994507,2.51202011108,896,1.0,N,Africa/Algiers,airport,236
Touggourt Sidi Madhi Airport,Touggourt,Algeria,TGR,DAUK,33.067798614501946,6.088669776916504,279,1.0,N,Africa/Algiers,airport,237
Laghouat Airport,Laghouat,Algeria,LOO,DAUL,33.7644004822,2.92833995819,2510,1.0,N,Africa/Algiers,airport,238
Timimoun Airport,Timimoun,Algeria,TMX,DAUT,29.2371006012,0.276033014059,1027,1.0,N,Africa/Algiers,airport,239
Ain el Beida Airport,Ouargla,Algeria,OGX,DAUU,31.917200088500977,5.412779808044434,492,1.0,N,Africa/Algiers,airport,240
In Aménas Airport,Zarzaitine,Algeria,IAM,DAUZ,28.0515,9.64291,1847,1.0,N,Africa/Algiers,airport,241
Cadjehoun Airport,Cotonou,Benin,COO,DBBB,6.357230186462402,2.384350061416626,19,1.0,N,Africa/Porto-Novo,airport,242
Ouagadougou Airport,Ouagadougou,Burkina Faso,OUA,DFFD,12.3532,-1.51242,1037,0.0,N,Africa/Ouagadougou,airport,243
Bobo Dioulasso Airport,Bobo-dioulasso,Burkina Faso,BOY,DFOO,11.160099983215332,-4.33096981048584,1511,0.0,N,Africa/Ouagadougou,airport,244
Kotoka International Airport,Accra,Ghana,ACC,DGAA,5.605189800262451,-0.1667860001325607,205,0.0,N,Africa/Accra,airport,245
Tamale Airport,Tamale,Ghana,TML,DGLE,9.55718994140625,-0.8632140159606934,553,0.0,N,Africa/Accra,airport,246
Wa Airport,Wa,Ghana,\N,DGLW,10.0826997756958,-2.507689952850342,1060,0.0,N,Africa/Accra,airport,247
Sunyani Airport,Sunyani,Ghana,NYI,DGSN,7.361830234527588,-2.3287599086761475,1014,0.0,N,Africa/Accra,airport,248
Takoradi Airport,Takoradi,Ghana,TKD,DGTK,4.896059989929199,-1.7747600078582764,21,0.0,N,Africa/Accra,airport,249
Port Bouet Airport,Abidjan,Cote d'Ivoire,ABJ,DIAP,5.261390209197998,-3.9262900352478014,21,0.0,N,Africa/Abidjan,airport,250
Bouaké Airport,Bouake,Cote d'Ivoire,BYK,DIBK,7.738800048828125,-5.073669910430908,1230,0.0,N,Africa/Abidjan,airport,251
Daloa Airport,Daloa,Cote d'Ivoire,DJO,DIDL,6.7928099632263175,-6.473189830780028,823,0.0,N,Africa/Abidjan,airport,252
Korhogo Airport,Korhogo,Cote d'Ivoire,HGO,DIKO,9.38718032837,-5.556660175319999,1214,0.0,N,Africa/Abidjan,airport,253
Man Airport,Man,Cote d'Ivoire,MJC,DIMN,7.272069931030272,-7.58735990524292,1089,0.0,N,Africa/Abidjan,airport,254
San Pedro Airport,San Pedro,Cote d'Ivoire,SPY,DISP,4.746719837188722,-6.660820007324219,26,0.0,N,Africa/Abidjan,airport,255
Yamoussoukro Airport,Yamoussoukro,Cote d'Ivoire,ASK,DIYO,6.9031701088,-5.36558008194,699,0.0,N,Africa/Abidjan,airport,256
Nnamdi Azikiwe International Airport,Abuja,Nigeria,ABV,DNAA,9.006790161132812,7.263169765472412,1123,1.0,N,Africa/Lagos,airport,257
Akure Airport,Akure,Nigeria,AKR,DNAK,7.246739864349365,5.3010101318359375,1100,1.0,N,Africa/Lagos,airport,258
Benin Airport,Benin,Nigeria,BNI,DNBE,6.3169798851013175,5.599500179290772,258,1.0,N,Africa/Lagos,airport,259
Margaret Ekpo International Airport,Calabar,Nigeria,CBQ,DNCA,4.976019859313965,8.347200393676758,210,1.0,N,Africa/Lagos,airport,260
Akanu Ibiam International Airport,Enugu,Nigeria,ENU,DNEN,6.474269866943359,7.561960220336914,466,1.0,N,Africa/Lagos,airport,261
Gusau Airport,Gusau,Nigeria,\N,DNGU,12.1717,6.696110000000001,1520,1.0,N,Africa/Lagos,airport,262
Ibadan Airport,Ibadan,Nigeria,IBA,DNIB,7.362460136413574,3.97832989692688,725,1.0,N,Africa/Lagos,airport,263
Ilorin International Airport,Ilorin,Nigeria,ILR,DNIL,8.440210342407228,4.493919849395752,1126,1.0,N,Africa/Lagos,airport,264
Yakubu Gowon Airport,Jos,Nigeria,JOS,DNJO,9.639829635620115,8.869050025939941,4232,1.0,N,Africa/Lagos,airport,265
Kaduna Airport,Kaduna,Nigeria,KAD,DNKA,10.696000099182127,7.320109844207764,2073,1.0,N,Africa/Lagos,airport,266
Mallam Aminu International Airport,Kano,Nigeria,KAN,DNKN,12.0476,8.52462,1562,1.0,N,Africa/Lagos,airport,267
Maiduguri International Airport,Maiduguri,Nigeria,MIU,DNMA,11.855299949645994,13.080900192260742,1099,1.0,N,Africa/Lagos,airport,268
Makurdi Airport,Makurdi,Nigeria,MDI,DNMK,7.703880000000001,8.61394,371,1.0,N,Africa/Lagos,airport,269
Murtala Muhammed International Airport,Lagos,Nigeria,LOS,DNMM,6.5773701667785645,3.321160078048706,135,1.0,N,Africa/Lagos,airport,270
Minna Airport,Minna,Nigeria,MXJ,DNMN,9.652170181274414,6.462259769439697,834,1.0,N,Africa/Lagos,airport,271
Port Harcourt International Airport,Port Hartcourt,Nigeria,PHC,DNPO,5.0154900550842285,6.94959020614624,87,1.0,N,Africa/Lagos,airport,272
Sadiq Abubakar III International Airport,Sokoto,Nigeria,SKO,DNSO,12.916299819946287,5.207190036773682,1010,1.0,N,Africa/Lagos,airport,273
Yola Airport,Yola,Nigeria,YOL,DNYO,9.257550239562988,12.430399894714355,599,1.0,N,Africa/Lagos,airport,274
Zaria Airport,Zaria,Nigeria,ZAR,DNZA,11.1302,7.685810000000001,2170,1.0,N,Africa/Lagos,airport,275
Maradi Airport,Maradi,Niger,MFQ,DRRM,13.5024995803833,7.1267499923706055,1240,1.0,N,Africa/Niamey,airport,276
Diori Hamani International Airport,Niamey,Niger,NIM,DRRN,13.4815,2.18361,732,1.0,N,Africa/Niamey,airport,277
Tahoua Airport,Tahoua,Niger,THZ,DRRT,14.875699996948242,5.265359878540039,1266,1.0,N,Africa/Niamey,airport,278
Mano Dayak International Airport,Agadez,Niger,AJY,DRZA,16.965999603271484,8.000109672546388,1657,1.0,N,Africa/Niamey,airport,279
Dirkou Airport,Dirkou,Niger,\N,DRZD,18.968700408935547,12.86870002746582,1273,1.0,N,Africa/Niamey,airport,280
Diffa Airport,Diffa,Niger,\N,DRZF,13.372900009155272,12.626700401306152,994,1.0,N,Africa/Niamey,airport,281
Zinder Airport,Zinder,Niger,ZND,DRZR,13.779000282287598,8.983759880065918,1516,1.0,N,Africa/Niamey,airport,282
Monastir Habib Bourguiba International Airport,Monastir,Tunisia,MIR,DTMB,35.75809860229492,10.75469970703125,9,1.0,E,Africa/Tunis,airport,283
Tunis Carthage International Airport,Tunis,Tunisia,TUN,DTTA,36.85100173950195,10.22719955444336,22,1.0,E,Africa/Tunis,airport,284
Sidi Ahmed Air Base,Bizerte,Tunisia,\N,DTTB,37.245398,9.79145,20,1.0,E,Africa/Tunis,airport,285
Remada Air Base,Remada,Tunisia,\N,DTTD,32.306198120117195,10.382100105285645,1004,1.0,E,Africa/Tunis,airport,286
Gafsa Ksar International Airport,Gafsa,Tunisia,GAF,DTTF,34.42200088500977,8.822500228881836,1060,1.0,E,Africa/Tunis,airport,287
Gabès Matmata International Airport,Gabes,Tunisia,GAE,DTTG,33.87689971923828,10.103300094604492,26,1.0,E,Africa/Tunis,airport,288
Borj El Amri Airport,Bordj El Amri,Tunisia,\N,DTTI,36.72129821777344,9.94314956665039,110,1.0,E,Africa/Tunis,airport,289
Djerba Zarzis International Airport,Djerba,Tunisia,DJE,DTTJ,33.875,10.775500297546388,19,1.0,E,Africa/Tunis,airport,290
El Borma Airport,El Borma,Tunisia,EBM,DTTR,31.70429992675781,9.254619598388672,827,1.0,E,Africa/Tunis,airport,291
Sfax Thyna International Airport,Sfax,Tunisia,SFA,DTTX,34.71799850463867,10.690999984741213,85,1.0,E,Africa/Tunis,airport,292
Tozeur Nefta International Airport,Tozeur,Tunisia,TOE,DTTZ,33.939701080322266,8.110560417175293,287,1.0,E,Africa/Tunis,airport,293
Niamtougou International Airport,Niatougou,Togo,LRL,DXNG,9.767330169677734,1.0912499427795408,1515,0.0,N,Africa/Lome,airport,294
Lomé-Tokoin Airport,Lome,Togo,LFW,DXXX,6.165609836578369,1.2545100450515747,72,0.0,N,Africa/Lome,airport,295
Antwerp International Airport (Deurne),Antwerp,Belgium,ANR,EBAW,51.1893997192,4.46027994156,39,1.0,E,Europe/Brussels,airport,296
Beauvechain Air Base,Beauvechain,Belgium,\N,EBBE,50.75859832763672,4.768330097198486,370,1.0,E,Europe/Brussels,airport,297
Kleine Brogel Air Base,Kleine Brogel,Belgium,\N,EBBL,51.168301,5.47,200,1.0,E,Europe/Brussels,airport,298
Brussels Airport,Brussels,Belgium,BRU,EBBR,50.9014015198,4.48443984985,184,1.0,E,Europe/Brussels,airport,299
Jehonville Air Base,Bertrix,Belgium,\N,EBBX,49.8917007446289,5.223889827728272,1514,1.0,E,Europe/Brussels,airport,300
Brussels South Charleroi Airport,Charleroi,Belgium,CRL,EBCI,50.459202000000005,4.45382,614,1.0,E,Europe/Brussels,airport,301
Chièvres Air Base,Chievres,Belgium,\N,EBCV,50.57580184936523,3.8310000896453857,194,1.0,E,Europe/Brussels,airport,302
Koksijde Air Base,Koksijde,Belgium,\N,EBFN,51.09030151367188,2.652780055999756,20,1.0,E,Europe/Brussels,airport,303
Florennes Air Base,Florennes,Belgium,\N,EBFS,50.2433013916,4.64583015442,935,1.0,E,Europe/Brussels,airport,304
Wevelgem Airport,Kortrijk-vevelgem,Belgium,KJK,EBKT,50.817199707,3.2047200202900004,64,1.0,E,Europe/Brussels,airport,305
Liège Airport,Liege,Belgium,LGG,EBLG,50.63740158081055,5.443220138549805,659,1.0,E,Europe/Brussels,airport,306
Ostend-Bruges International Airport,Ostend,Belgium,OST,EBOS,51.1988983154,2.8622200489,13,1.0,E,Europe/Brussels,airport,307
Zutendaal Air Base,Zutendaal,Belgium,\N,EBSL,50.9474983215332,5.590559959411621,312,1.0,E,Europe/Brussels,airport,308
Brustem Airfield Sint Truiden,Sint-truiden,Belgium,\N,EBST,50.791901,5.20167,246,1.0,E,Europe/Brussels,airport,309
Saint Hubert Air Base,St.-hubert,Belgium,\N,EBSU,50.034400939941406,5.440810203552246,1930,1.0,E,Europe/Brussels,airport,310
Ursel Air Base,Ursel,Belgium,\N,EBUL,51.14419937133789,3.475559949874878,95,1.0,E,Europe/Brussels,airport,311
Weelde Air Base,Weelde,Belgium,\N,EBWE,51.394798278808594,4.9601898193359375,105,1.0,E,Europe/Brussels,airport,312
Zoersel (Oostmalle) Airfield,Zoersel,Belgium,OBL,EBZR,51.264702,4.75333,53,1.0,E,Europe/Brussels,airport,313
Flugplatz Bautzen,Bautzen,Germany,\N,EDAB,51.193611,14.519722,568,1.0,E,Europe/Berlin,airport,314
Altenburg-Nobitz Airport,Altenburg,Germany,AOC,EDAC,50.981945,12.506389,640,1.0,E,Europe/Berlin,airport,315
Dessau Airfield,Dessau,Germany,\N,EDAD,51.831694,12.190962,187,1.0,E,Europe/Berlin,airport,316
Eisenhüttenstadt Airfield,Eisenhuettenstadt,Germany,\N,EDAE,52.195856,14.58753,144,1.0,E,Europe/Berlin,airport,317
Großenhain Airport,Suhl,Germany,\N,EDAK,51.30805587768555,13.555556297302244,417,1.0,E,Europe/Berlin,airport,318
Merseburg Airport,Muehlhausen,Germany,\N,EDAM,51.3630556,11.9408333,341,1.0,E,Europe/Berlin,airport,319
Halle-Oppin Airport,Halle,Germany,\N,EDAQ,51.552223,12.053889,348,1.0,E,Europe/Berlin,airport,320
Riesa-Göhlis Airport,Riesa,Germany,IES,EDAU,51.2936096191,13.3561105728,322,1.0,E,Europe/Berlin,airport,321
Rechlin-Lärz Airport,Rechlin-laerz,Germany,REB,EDAX,53.306388855,12.7522220612,220,1.0,E,Europe/Berlin,airport,322
Strausberg Airport,Strausberg,Germany,\N,EDAY,52.5805549621582,13.916666984558104,262,1.0,E,Europe/Berlin,airport,323
Schönhagen Airport,Schoenhagen,Germany,QXH,EDAZ,52.203609,13.156389,152,1.0,E,Europe/Berlin,airport,324
Barth Airport,Barth,Germany,BBH,EDBH,54.338253,12.710515,23,1.0,E,Europe/Berlin,airport,325
Jena-Schöngleina Airfield,Jena,Germany,\N,EDBJ,50.915279,11.714444,1247,1.0,E,Europe/Berlin,airport,326
Kyritz Airport,Kyritz,Germany,\N,EDBK,52.91888809204102,12.425277709960938,131,1.0,E,Europe/Berlin,airport,327
"Magdeburg ""City"" Airport",Magdeburg,Germany,ZMG,EDBM,52.073612,11.626389,259,1.0,E,Europe/Berlin,airport,328
Rothenburg/Görlitz Airport,Rothenburg/ol,Germany,\N,EDBR,51.36333465576172,14.949999809265137,518,1.0,E,Europe/Berlin,airport,329
Anklam Airfield,Anklam,Germany,\N,EDCA,53.832779,13.668611,16,1.0,E,Europe/Berlin,airport,330
Cottbus-Drewitz Airport,Cottbus,Germany,CBU,EDCD,51.889442,14.531944,272,1.0,E,Europe/Berlin,airport,331
Kamenz Airport,Kamenz,Germany,\N,EDCM,51.29694366455078,14.1274995803833,495,1.0,E,Europe/Berlin,airport,332
Berlin-Schönefeld Airport,Berlin,Germany,SXF,EDDB,52.380001,13.5225,157,1.0,E,Europe/Berlin,airport,333
Dresden Airport,Dresden,Germany,DRS,EDDC,51.1328010559082,13.767200469970703,755,1.0,E,Europe/Berlin,airport,334
Erfurt Airport,Erfurt,Germany,ERF,EDDE,50.97980117797852,10.958100318908691,1036,1.0,E,Europe/Berlin,airport,335
Frankfurt am Main Airport,Frankfurt,Germany,FRA,EDDF,50.033333,8.570556,364,1.0,E,Europe/Berlin,airport,336
Münster Osnabrück Airport,Munster,Germany,FMO,EDDG,52.134601593,7.68483018875,160,1.0,E,Europe/Berlin,airport,337
Hamburg Airport,Hamburg,Germany,HAM,EDDH,53.630401611328,9.988229751586902,53,1.0,E,Europe/Berlin,airport,338
Berlin-Tempelhof International Airport,Berlin,Germany,THF,EDDI,52.47299957275391,13.403900146484377,167,1.0,E,Europe/Berlin,airport,339
Cologne Bonn Airport,Cologne,Germany,CGN,EDDK,50.8658981323,7.1427397728,302,1.0,E,Europe/Berlin,airport,340
Düsseldorf Airport,Duesseldorf,Germany,DUS,EDDL,51.289501,6.766780000000001,147,1.0,E,Europe/Berlin,airport,341
Munich Airport,Munich,Germany,MUC,EDDM,48.353802,11.7861,1487,1.0,E,Europe/Berlin,airport,342
Nuremberg Airport,Nuernberg,Germany,NUE,EDDN,49.498699,11.078056,1046,1.0,E,Europe/Berlin,airport,343
Leipzig/Halle Airport,Leipzig,Germany,LEJ,EDDP,51.423889,12.236389,465,1.0,E,Europe/Berlin,airport,344
Saarbrücken Airport,Saarbruecken,Germany,SCN,EDDR,49.2145996094,7.10950994492,1058,1.0,E,Europe/Berlin,airport,345
Stuttgart Airport,Stuttgart,Germany,STR,EDDS,48.6898994446,9.22196006775,1276,1.0,E,Europe/Berlin,airport,346
Berlin-Tegel Airport,Berlin,Germany,TXL,EDDT,52.5597,13.2877,122,1.0,E,Europe/Berlin,airport,347
Hannover Airport,Hannover,Germany,HAJ,EDDV,52.461101532,9.68507957458,183,1.0,E,Europe/Berlin,airport,348
Bremen Airport,Bremen,Germany,BRE,EDDW,53.0475006104,8.78666973114,14,1.0,E,Europe/Berlin,airport,349
Frankfurt-Egelsbach Airport,Egelsbach,Germany,QEF,EDFE,49.959999,8.645833,384,1.0,E,Europe/Berlin,airport,350
Frankfurt-Hahn Airport,Hahn,Germany,HHN,EDFH,49.9487,7.263889999999999,1649,1.0,E,Europe/Berlin,airport,351
Mannheim-City Airport,Mannheim,Germany,MHG,EDFM,49.473057,8.514167,308,1.0,E,Europe/Berlin,airport,352
Allendorf/Eder Airport,Allendorf,Germany,\N,EDFQ,51.03499984741211,8.680832862854004,1158,1.0,E,Europe/Berlin,airport,353
Worms Airport,Worms,Germany,\N,EDFV,49.606945,8.368333,295,1.0,E,Europe/Berlin,airport,354
Mainz-Finthen Airport,Mainz,Germany,\N,EDFZ,49.967499,8.147222,525,1.0,E,Europe/Berlin,airport,355
Eisenach-Kindel Airport,Eisenach,Germany,EIB,EDGE,50.991604,10.47973,1112,1.0,E,Europe/Berlin,airport,356
Siegerland Airport,Siegerland,Germany,SGE,EDGS,50.70769882202149,8.082969665527344,1966,1.0,E,Europe/Berlin,airport,357
Hamburg-Finkenwerder Airport,Hamburg,Germany,XFW,EDHI,53.5352783203125,9.835556030273438,23,1.0,E,Europe/Berlin,airport,358
Kiel-Holtenau Airport,Kiel,Germany,KEL,EDHK,54.37944412231445,10.145277976989746,102,1.0,E,Europe/Berlin,airport,359
Lübeck Blankensee Airport,Luebeck,Germany,LBC,EDHL,53.805400848400005,10.7192001343,53,1.0,E,Europe/Berlin,airport,360
Flugplatz Dahlemer Binz,Dahlemer Binz,Germany,\N,EDKV,50.405555725,6.528889179199999,1896,1.0,E,Europe/Berlin,airport,361
Meinerzhagen Airport,Meinerzhagen,Germany,\N,EDKZ,51.09999847412109,7.599999904632567,1549,1.0,E,Europe/Berlin,airport,362
Arnsberg-Menden Airport,Arnsberg,Germany,\N,EDLA,51.48389053344727,7.8983330726623535,794,1.0,E,Europe/Berlin,airport,363
Essen Mulheim Airport,Essen,Germany,ESS,EDLE,51.40230178833008,6.9373297691345215,424,1.0,E,Europe/Berlin,airport,364
Bielefeld Airport,Bielefeld,Germany,BFE,EDLI,51.964722,8.544444,454,1.0,E,Europe/Berlin,airport,365
Mönchengladbach Airport,Moenchengladbach,Germany,MGL,EDLN,51.230278000000006,6.504444,125,1.0,E,Europe/Berlin,airport,366
Paderborn Lippstadt Airport,Paderborn,Germany,PAD,EDLP,51.6141014099,8.616319656369999,699,1.0,E,Europe/Berlin,airport,367
Stadtlohn-Vreden Airport,Stadtlohn,Germany,\N,EDLS,51.99583435058594,6.840556144714356,157,1.0,E,Europe/Berlin,airport,368
Dortmund Airport,Dortmund,Germany,DTM,EDLW,51.51829910279999,7.61223983765,425,1.0,E,Europe/Berlin,airport,369
Augsburg Airport,Augsburg,Germany,AGB,EDMA,48.425278000000006,10.931667,1516,1.0,E,Europe/Berlin,airport,370
Biberach a.d. Riß Airfield,Biberach,Germany,\N,EDMB,48.111111,9.762778,1903,1.0,E,Europe/Berlin,airport,371
Eggenfelden Airport,Eggenfelden,Germany,\N,EDME,48.39611053466797,12.723610877990724,1342,1.0,E,Europe/Berlin,airport,372
Mindelheim-Mattsies Airfield,Mindelheim,Germany,\N,EDMN,48.106945,10.525,1857,1.0,E,Europe/Berlin,airport,373
Oberpfaffenhofen Airport,Oberpfaffenhofen,Germany,OBF,EDMO,48.081402,11.2831,1947,1.0,E,Europe/Berlin,airport,374
Straubing Airport,Straubing,Germany,RBM,EDMS,48.90083312988281,12.516667366027832,1047,1.0,E,Europe/Berlin,airport,375
Vilshofen Airport,Vilshofen,Germany,\N,EDMV,48.6349983215332,13.195555686950684,991,1.0,E,Europe/Berlin,airport,376
Leutkirch-Unterzeil Airport,Leutkirch,Germany,\N,EDNL,47.85889053344727,10.014166831970217,2100,1.0,E,Europe/Berlin,airport,377
Friedrichshafen Airport,Friedrichshafen,Germany,FDH,EDNY,47.6712989807,9.511489868160002,1367,1.0,E,Europe/Berlin,airport,378
Schwerin Parchim Airport,Parchim,Germany,SZW,EDOP,53.426998,11.7834,166,1.0,E,Europe/Berlin,airport,379
Stendal-Borstel Airport,Stendal,Germany,\N,EDOV,52.62888717651367,11.818611145019531,184,1.0,E,Europe/Berlin,airport,380
Aalen-Heidenheim/Elchingen Airport,Aalen-heidenheim,Germany,\N,EDPA,48.77777862548828,10.264721870422363,1916,1.0,E,Europe/Berlin,airport,381
Bayreuth Airport,Bayreuth,Germany,BYU,EDQD,49.985001,11.64,1601,1.0,E,Europe/Berlin,airport,382
Burg Feuerstein Airport,Burg Feuerstein,Germany,URD,EDQE,49.794166564940994,11.133610725403,1673,1.0,E,Europe/Berlin,airport,383
Hof-Plauen Airport,Hof,Germany,HOQ,EDQM,50.288612365722656,11.856389045715332,1959,1.0,E,Europe/Berlin,airport,384
Haßfurt-Schweinfurt Airport,Hassfurt,Germany,\N,EDQT,50.0180549621582,10.529443740844728,719,1.0,E,Europe/Berlin,airport,385
Koblenz-Winningen Airfield,Koblenz,Germany,\N,EDRK,50.325558,7.528611,640,1.0,E,Europe/Berlin,airport,386
Trier-Föhren Airport,Trier,Germany,\N,EDRT,49.863888,6.7875,666,1.0,E,Europe/Berlin,airport,387
Speyer Airfield,Speyer,Germany,\N,EDRY,49.304722,8.451389,312,1.0,E,Europe/Berlin,airport,388
Zweibrücken Airport,Zweibruecken,Germany,ZQW,EDRZ,49.2094,7.40056,1132,1.0,E,Europe/Berlin,airport,389
Donaueschingen-Villingen Airport,Donaueschingen,Germany,ZQL,EDTD,47.97333145139999,8.52222156525,2231,1.0,E,Europe/Berlin,airport,390
Freiburg i. Br. Airport,Freiburg,Germany,\N,EDTF,48.022777557400005,7.832499980930001,801,1.0,E,Europe/Berlin,airport,391
Mengen-Hohentengen Airport,Mengen,Germany,\N,EDTM,48.05389022827149,9.372777938842772,1818,1.0,E,Europe/Berlin,airport,392
Adolf Würth Airport,Schwaebisch Hall,Germany,\N,EDTY,49.1183319092,9.783888816829998,1299,1.0,E,Europe/Berlin,airport,393
Finsterwalde/Schacksdorf Airport,Soest,Germany,\N,EDUS,51.607498,13.743610999999998,384,1.0,E,Europe/Berlin,airport,394
Braunschweig-Wolfsburg Airport,Braunschweig,Germany,BWE,EDVE,52.319199,10.5561,295,1.0,E,Europe/Berlin,airport,395
Kassel-Calden Airport,Kassel,Germany,KSF,EDVK,51.417273,9.384967,820,1.0,E,Europe/Berlin,airport,396
Hildesheim Airport,Hildesheim,Germany,\N,EDVM,52.18138885498047,9.946389198303224,292,1.0,E,Europe/Berlin,airport,397
Bremerhaven Airport,Bremerhaven,Germany,BRV,EDWB,53.50694300000001,8.572778,10,1.0,E,Europe/Berlin,airport,398
Emden Airport,Emden,Germany,EME,EDWE,53.391109,7.2275,3,1.0,E,Europe/Berlin,airport,399
Leer-Papenburg Airport,Leer,Germany,\N,EDWF,53.27194213867188,7.441667079925537,3,1.0,E,Europe/Berlin,airport,400
Wilhelmshaven-Mariensiel Airport,Wilhelmshaven,Germany,WVN,EDWI,53.502220153808594,8.05222225189209,16,1.0,E,Europe/Berlin,airport,401
Borkum Airport,Borkum,Germany,BMK,EDWR,53.59639,6.709167,3,1.0,E,Europe/Berlin,airport,402
Norderney Airport,Norderney,Germany,NRD,EDWY,53.70694351196289,7.230000019073486,7,1.0,E,Europe/Berlin,airport,403
Flensburg-Schäferhaus Airport,Flensburg,Germany,FLF,EDXF,54.77333450317383,9.378889083862305,131,1.0,E,Europe/Berlin,airport,404
Rendsburg-Schachtholm Airport,Rendsburg,Germany,\N,EDXR,54.22000122070313,9.599444389343262,23,1.0,E,Europe/Berlin,airport,405
Westerland Sylt Airport,Westerland,Germany,GWT,EDXW,54.9132003784,8.34047031403,51,1.0,E,Europe/Berlin,airport,406
Ämari Air Base,Armari Air Force Base,Estonia,\N,EEEI,59.26029968261719,24.208499908447266,65,2.0,E,Europe/Tallinn,airport,407
Kärdla Airport,Kardla,Estonia,KDL,EEKA,58.99079895019531,22.830699920654297,18,2.0,E,Europe/Tallinn,airport,408
Kuressaare Airport,Kuressaare,Estonia,URE,EEKE,58.22990036010742,22.50950050354004,14,2.0,E,Europe/Tallinn,airport,409
Pärnu Airport,Parnu,Estonia,EPU,EEPU,58.41899871826172,24.47279930114746,47,2.0,E,Europe/Tallinn,airport,410
Lennart Meri Tallinn Airport,Tallinn-ulemiste International,Estonia,TLL,EETN,59.41329956049999,24.8327999115,131,2.0,E,Europe/Tallinn,airport,411
Tartu Airport,Tartu,Estonia,TAY,EETU,58.30749893189999,26.6903991699,219,2.0,E,Europe/Tallinn,airport,412
Enontekio Airport,Enontekio,Finland,ENF,EFET,68.36260223388699,23.424299240112,1005,2.0,E,Europe/Helsinki,airport,413
Eura Airport,Eura,Finland,\N,EFEU,61.1161003112793,22.20140075683593,259,2.0,E,Europe/Helsinki,airport,414
Halli Airport,Halli,Finland,KEV,EFHA,61.856039,24.786686,479,2.0,E,Europe/Helsinki,airport,415
Helsinki Malmi Airport,Helsinki,Finland,HEM,EFHF,60.25460052490234,25.04280090332031,57,2.0,E,Europe/Helsinki,airport,416
Helsinki Vantaa Airport,Helsinki,Finland,HEL,EFHK,60.317199707031,24.963300704956,179,2.0,E,Europe/Helsinki,airport,417
Hameenkyro Airport,Hameenkyro,Finland,\N,EFHM,61.68970108032226,23.073699951171875,449,2.0,E,Europe/Helsinki,airport,418
Hanko Airport,Hanko,Finland,\N,EFHN,59.848899841308594,23.08359909057617,20,2.0,E,Europe/Helsinki,airport,419
Hyvinkää Airfield,Hyvinkaa,Finland,HYV,EFHV,60.6543998718,24.8810997009,430,2.0,E,Europe/Helsinki,airport,420
Kiikala Airport,Kikala,Finland,\N,EFIK,60.4625015259,23.6525001526,381,2.0,E,Europe/Helsinki,airport,421
Immola Airport,Immola,Finland,\N,EFIM,61.24919891357422,28.90369987487793,338,2.0,E,Europe/Helsinki,airport,422
Kitee Airport,Kitee,Finland,KTQ,EFIT,62.1661,30.073601,364,2.0,E,Europe/Helsinki,airport,423
Ivalo Airport,Ivalo,Finland,IVL,EFIV,68.607299804688,27.405300140381,481,2.0,E,Europe/Helsinki,airport,424
Joensuu Airport,Joensuu,Finland,JOE,EFJO,62.662899017334006,29.607500076294,398,2.0,E,Europe/Helsinki,airport,425
Jyvaskyla Airport,Jyvaskyla,Finland,JYV,EFJY,62.399501800537,25.678300857544,459,2.0,E,Europe/Helsinki,airport,426
Kauhava Airport,Kauhava,Finland,KAU,EFKA,63.127102,23.051399,151,2.0,E,Europe/Helsinki,airport,427
Kemi-Tornio Airport,Kemi,Finland,KEM,EFKE,65.778701782227,24.582099914551,61,2.0,E,Europe/Helsinki,airport,428
Kajaani Airport,Kajaani,Finland,KAJ,EFKI,64.285499572754,27.692399978638,483,2.0,E,Europe/Helsinki,airport,429
Kauhajoki Airport,Kauhajoki,Finland,KHJ,EFKJ,62.4625015259,22.3931007385,407,2.0,E,Europe/Helsinki,airport,430
Kokkola-Pietarsaari Airport,Kruunupyy,Finland,KOK,EFKK,63.721199035645,23.143100738525,84,2.0,E,Europe/Helsinki,airport,431
Kemijarvi Airport,Kemijarvi,Finland,\N,EFKM,66.712898,27.156799,692,2.0,E,Europe/Helsinki,airport,432
Kuusamo Airport,Kuusamo,Finland,KAO,EFKS,65.98760223388699,29.239400863647,866,2.0,E,Europe/Helsinki,airport,433
Kittilä Airport,Kittila,Finland,KTT,EFKT,67.700996398926,24.846799850464,644,2.0,E,Europe/Helsinki,airport,434
Kuopio Airport,Kuopio,Finland,KUO,EFKU,63.007099151611,27.797800064087,323,2.0,E,Europe/Helsinki,airport,435
Lahti Vesivehmaa Airport,Vesivehmaa,Finland,QLF,EFLA,61.144199,25.693501,502,2.0,E,Europe/Helsinki,airport,436
Lappeenranta Airport,Lappeenranta,Finland,LPP,EFLP,61.044601,28.144743,349,2.0,E,Europe/Helsinki,airport,437
Mariehamn Airport,Mariehamn,Finland,MHQ,EFMA,60.122200012207,19.898199081421,17,2.0,E,Europe/Mariehamn,airport,438
Menkijarvi Airport,Menkijarvi,Finland,\N,EFME,62.94670104980469,23.51889991760254,331,2.0,E,Europe/Helsinki,airport,439
Mikkeli Airport,Mikkeli,Finland,MIK,EFMI,61.6866,27.201799,329,2.0,E,Europe/Helsinki,airport,440
Nummela Airport,Nummela,Finland,\N,EFNU,60.3339004517,24.2964000702,367,2.0,E,Europe/Helsinki,airport,441
Oulu Airport,Oulu,Finland,OUL,EFOU,64.930099487305,25.354600906372,47,2.0,E,Europe/Helsinki,airport,442
Piikajarvi Airport,Piikajarvi,Finland,\N,EFPI,61.24560165405274,22.19339942932129,148,2.0,E,Europe/Helsinki,airport,443
Pori Airport,Pori,Finland,POR,EFPO,61.46170043945301,21.799999237061,44,2.0,E,Europe/Helsinki,airport,444
Pudasjärvi Airport,Pudasjarvi,Finland,\N,EFPU,65.4021987915,26.9468994141,397,2.0,E,Europe/Helsinki,airport,445
Pyhäsalmi Airport,Pyhasalmi,Finland,\N,EFPY,63.7318992615,25.9263000488,528,2.0,E,Europe/Helsinki,airport,446
Raahe Pattijoki Airport,Pattijoki,Finland,\N,EFRH,64.6881027222,24.6958007812,118,2.0,E,Europe/Helsinki,airport,447
Rantasalmi Airport,Rantasalmi,Finland,\N,EFRN,62.0654983521,28.3565006256,292,2.0,E,Europe/Helsinki,airport,448
Rovaniemi Airport,Rovaniemi,Finland,RVN,EFRO,66.564796447754,25.830400466919,642,2.0,E,Europe/Helsinki,airport,449
Rayskala Airport,Rayskala,Finland,\N,EFRY,60.74470138549805,24.107799530029297,407,2.0,E,Europe/Helsinki,airport,450
Savonlinna Airport,Savonlinna,Finland,SVL,EFSA,61.943099975586,28.945100784302,311,2.0,E,Europe/Helsinki,airport,451
Selanpaa Airport,Selanpaa,Finland,\N,EFSE,61.06240081787109,26.79890060424805,417,2.0,E,Europe/Helsinki,airport,452
Sodankyla Airport,Sodankyla,Finland,SOT,EFSO,67.3949966431,26.6191005707,602,2.0,E,Europe/Helsinki,airport,453
Tampere-Pirkkala Airport,Tampere,Finland,TMP,EFTP,61.414100646973,23.604400634766,390,2.0,E,Europe/Helsinki,airport,454
Teisko Airport,Teisko,Finland,\N,EFTS,61.7733,24.027,515,2.0,E,Europe/Helsinki,airport,455
Turku Airport,Turku,Finland,TKU,EFTU,60.514099121094,22.262800216675,161,2.0,E,Europe/Helsinki,airport,456
Utti Air Base,Utti,Finland,UTI,EFUT,60.89640045165999,26.938400268555004,339,2.0,E,Europe/Helsinki,airport,457
Vaasa Airport,Vaasa,Finland,VAA,EFVA,63.050701141357,21.762199401855,19,2.0,E,Europe/Helsinki,airport,458
Varkaus Airport,Varkaus,Finland,VRK,EFVR,62.171100616455,27.868600845337,286,2.0,E,Europe/Helsinki,airport,459
Ylivieska Airfield,Ylivieska-raudaskyla,Finland,YLI,EFYL,64.0547222,24.7252778,252,2.0,E,Europe/Helsinki,airport,460
Belfast International Airport,Belfast,United Kingdom,BFS,EGAA,54.6575012207,-6.21582984924,268,0.0,E,Europe/London,airport,461
St Angelo Airport,Enniskillen,United Kingdom,ENK,EGAB,54.39889907836914,-7.651669979095459,155,0.0,E,Europe/London,airport,462
George Best Belfast City Airport,Belfast,United Kingdom,BHD,EGAC,54.61809921264648,-5.872499942779541,15,0.0,E,Europe/London,airport,463
City of Derry Airport,Londonderry,United Kingdom,LDY,EGAE,55.04280090332031,-7.161109924316406,22,0.0,E,Europe/London,airport,464
Birmingham International Airport,Birmingham,United Kingdom,BHX,EGBB,52.4538993835,-1.7480299472799998,327,0.0,E,Europe/London,airport,465
Coventry Airport,Coventry,United Kingdom,CVT,EGBE,52.3697013855,-1.47971999645,267,0.0,E,Europe/London,airport,466
Leicester Airport,Leicester,United Kingdom,\N,EGBG,52.6077995300293,-1.03193998336792,469,0.0,E,Europe/London,airport,467
Gloucestershire Airport,Golouchestershire,United Kingdom,GLO,EGBJ,51.89419937133789,-2.1672201156616206,101,0.0,E,Europe/London,airport,468
Wolverhampton Halfpenny Green Airport,Halfpenny Green,United Kingdom,\N,EGBO,52.51750183105469,-2.259439945220948,283,0.0,E,Europe/London,airport,469
Cotswold Airport,Pailton,United Kingdom,GBA,EGBP,51.668095,-2.05694,433,0.0,E,Europe/London,airport,470
Turweston Airport,Turweston,United Kingdom,\N,EGBT,52.0407981873,-1.09555995464,448,0.0,E,Europe/London,airport,471
Wellesbourne Mountford Airport,Wellesbourne,United Kingdom,\N,EGBW,52.19219970703125,-1.6144399642944336,159,0.0,E,Europe/London,airport,472
Manchester Airport,Manchester,United Kingdom,MAN,EGCC,53.35369873046875,-2.2749500274658203,257,0.0,E,Europe/London,airport,473
Manchester Woodford Airport,Woodfort,United Kingdom,\N,EGCD,53.3381,-2.14889,295,0.0,E,Europe/London,airport,474
Royal Marines Base Chivenor Airport,Chivenor,United Kingdom,\N,EGDC,51.08720016479492,-4.150340080261231,27,0.0,E,Europe/London,airport,475
Newquay Cornwall Airport,Newquai,United Kingdom,NQY,EGHQ,50.44060134887695,-4.995409965515137,390,0.0,E,Europe/London,airport,476
RAF Lyneham,Lyneham,United Kingdom,LYE,EGDL,51.5051,-1.99343,513,0.0,E,Europe/London,airport,477
MoD Boscombe Down Airport,Boscombe Down,United Kingdom,\N,EGDM,51.15219879150391,-1.7474100589752195,407,0.0,E,Europe/London,airport,478
RNAS Culdrose,Culdrose,United Kingdom,\N,EGDR,50.08610153198242,-5.2557101249694815,267,0.0,E,Europe/London,airport,479
MoD St. Athan,St. Athan,United Kingdom,\N,EGDX,51.4048,-3.43575,163,0.0,E,Europe/London,airport,480
RNAS Yeovilton,Yeovilton,United Kingdom,YEO,EGDY,51.0093994140625,-2.638819932937622,75,0.0,E,Europe/London,airport,481
Haverfordwest Airport,Haverfordwest,United Kingdom,HAW,EGFE,51.83309936523438,-4.9611101150512695,159,0.0,E,Europe/London,airport,482
Cardiff International Airport,Cardiff,United Kingdom,CWL,EGFF,51.39670181274414,-3.343329906463623,220,0.0,E,Europe/London,airport,483
Swansea Airport,Swansea,United Kingdom,SWS,EGFH,51.60530090332031,-4.0678300857543945,299,0.0,E,Europe/London,airport,484
Bristol Airport,Bristol,United Kingdom,BRS,EGGD,51.382702,-2.71909,622,0.0,E,Europe/London,airport,485
Liverpool John Lennon Airport,Liverpool,United Kingdom,LPL,EGGP,53.33359909057617,-2.849720001220703,80,0.0,E,Europe/London,airport,486
London Luton Airport,London,United Kingdom,LTN,EGGW,51.87469863891602,-0.3683330118656158,526,0.0,E,Europe/London,airport,487
Plymouth City Airport,Plymouth,United Kingdom,PLH,EGHD,50.422798,-4.10583,476,0.0,E,Europe/London,airport,488
Bournemouth Airport,Bournemouth,United Kingdom,BOH,EGHH,50.77999877929688,-1.8424999713897705,38,0.0,E,Europe/London,airport,489
Southampton Airport,Southampton,United Kingdom,SOU,EGHI,50.95029830932617,-1.3567999601364136,44,0.0,E,Europe/London,airport,490
Lasham Airport,Lasham,United Kingdom,QLA,EGHL,51.18719863891602,-1.0334999561309814,618,0.0,E,Europe/London,airport,491
Alderney Airport,Alderney,Guernsey,ACI,EGJA,49.706104,-2.21472,290,0.0,E,Europe/Guernsey,airport,492
Guernsey Airport,Guernsey,Guernsey,GCI,EGJB,49.43500137329102,-2.601969957351685,336,0.0,E,Europe/Guernsey,airport,493
Jersey Airport,Jersey,Jersey,JER,EGJJ,49.20790100097656,-2.195509910583496,277,0.0,E,Europe/Jersey,airport,494
Shoreham Airport,Shoreham By Sea,United Kingdom,ESH,EGKA,50.835602,-0.297222,7,0.0,E,Europe/London,airport,495
London Biggin Hill Airport,Biggin Hill,United Kingdom,BQH,EGKB,51.33079910279999,0.0324999988079,598,0.0,E,Europe/London,airport,496
London Gatwick Airport,London,United Kingdom,LGW,EGKK,51.148102,-0.190278,202,0.0,E,Europe/London,airport,497
London City Airport,London,United Kingdom,LCY,EGLC,51.505299,0.0552779999999999,19,0.0,E,Europe/London,airport,498
Farnborough Airport,Farnborough,United Kingdom,FAB,EGLF,51.2757987976,-0.776332974434,238,0.0,E,Europe/London,airport,499
Chalgrove Airport,Chalsgrove,United Kingdom,\N,EGLJ,51.67610168457031,-1.0808299779891968,240,0.0,E,Europe/London,airport,500
Blackbushe Airport,Blackbushe,United Kingdom,BBS,EGLK,51.32389831542969,-0.8475000262260437,325,0.0,E,Europe/London,airport,501
London Heathrow Airport,London,United Kingdom,LHR,EGLL,51.4706,-0.461941,83,0.0,E,Europe/London,airport,502
Southend Airport,Southend,United Kingdom,SEN,EGMC,51.5713996887207,0.6955559849739075,49,0.0,E,Europe/London,airport,503
Lydd Airport,Lydd,United Kingdom,LYX,EGMD,50.95610046386719,0.939167022705078,13,0.0,E,Europe/London,airport,504
Kent International Airport,Manston,United Kingdom,MSE,EGMH,51.342201,1.34611,178,0.0,E,Europe/London,airport,505
Brough Airport,Brough,United Kingdom,\N,EGNB,53.7197,-0.566333,12,0.0,E,Europe/London,airport,506
Carlisle Airport,Carlisle,United Kingdom,CAX,EGNC,54.9375,-2.8091700077056885,190,0.0,E,Europe/London,airport,507
Retford Gamston Airport,Repton,United Kingdom,\N,EGNE,53.28060150146485,-0.9513890147209167,91,0.0,E,Europe/London,airport,508
Blackpool International Airport,Blackpool,United Kingdom,BLK,EGNH,53.77170181274414,-3.0286099910736084,34,0.0,E,Europe/London,airport,509
Humberside Airport,Humberside,United Kingdom,HUY,EGNJ,53.57440185546875,-0.350832998752594,121,0.0,E,Europe/London,airport,510
Barrow Walney Island Airport,Barrow Island,United Kingdom,BWF,EGNL,54.1286111,-3.2675,173,0.0,E,Europe/London,airport,511
Leeds Bradford Airport,Leeds,United Kingdom,LBA,EGNM,53.86589813232422,-1.6605700254440308,681,0.0,E,Europe/London,airport,512
Warton Airport,Warton,United Kingdom,WRT,EGNO,53.745098,-2.88306,55,0.0,E,Europe/London,airport,513
Hawarden Airport,Hawarden,United Kingdom,CEG,EGNR,53.1781005859375,-2.977780103683472,45,0.0,E,Europe/London,airport,514
Isle of Man Airport,Isle Of Man,Isle of Man,IOM,EGNS,54.08330154418945,-4.623889923095703,52,0.0,E,Europe/Isle_of_Man,airport,515
Newcastle Airport,Newcastle,United Kingdom,NCL,EGNT,55.03749847412109,-1.6916699409484863,266,0.0,E,Europe/London,airport,516
Durham Tees Valley Airport,Teesside,United Kingdom,MME,EGNV,54.50920104980469,-1.4294099807739258,120,0.0,E,Europe/London,airport,517
East Midlands Airport,East Midlands,United Kingdom,EMA,EGNX,52.8311004639,-1.32806003094,306,0.0,E,Europe/London,airport,518
Llanbedr Airport,Llanbedr,United Kingdom,\N,EGOD,52.811698913574,-4.1235799789429,30,0.0,E,Europe/London,airport,519
RAF Ternhill,Ternhill,United Kingdom,\N,EGOE,52.87120056152344,-2.533560037612915,272,0.0,E,Europe/London,airport,520
RAF Shawbury,Shawbury,United Kingdom,\N,EGOS,52.79819869995117,-2.668040037155152,249,0.0,E,Europe/London,airport,521
RAF Woodvale,Woodvale,United Kingdom,\N,EGOW,53.5816,-3.05552,37,0.0,E,Europe/London,airport,522
Kirkwall Airport,Kirkwall,United Kingdom,KOI,EGPA,58.957801818847656,-2.9049999713897705,50,0.0,E,Europe/London,airport,523
Sumburgh Airport,Sumburgh,United Kingdom,LSI,EGPB,59.87889862060547,-1.295560002326965,20,0.0,E,Europe/London,airport,524
Wick Airport,Wick,United Kingdom,WIC,EGPC,58.45890045166016,-3.09306001663208,126,0.0,E,Europe/London,airport,525
Aberdeen Dyce Airport,Aberdeen,United Kingdom,ABZ,EGPD,57.20190048217773,-2.1977798938751216,215,0.0,E,Europe/London,airport,526
Inverness Airport,Inverness,United Kingdom,INV,EGPE,57.54249954223633,-4.047500133514403,31,0.0,E,Europe/London,airport,527
Glasgow International Airport,Glasgow,United Kingdom,GLA,EGPF,55.8718986511,-4.43306016922,26,0.0,E,Europe/London,airport,528
Edinburgh Airport,Edinburgh,United Kingdom,EDI,EGPH,55.95000076293945,-3.372499942779541,135,0.0,E,Europe/London,airport,529
Islay Airport,Islay,United Kingdom,ILY,EGPI,55.68190002441406,-6.256669998168945,56,0.0,E,Europe/London,airport,530
Glasgow Prestwick Airport,Prestwick,United Kingdom,PIK,EGPK,55.5093994140625,-4.586669921875,65,0.0,E,Europe/London,airport,531
Benbecula Airport,Benbecula,United Kingdom,BEB,EGPL,57.48109817504883,-7.362780094146728,19,0.0,E,Europe/London,airport,532
Scatsta Airport,Scatsta,United Kingdom,SCS,EGPM,60.43280029296875,-1.2961100339889526,81,0.0,E,Europe/London,airport,533
Dundee Airport,Dundee,United Kingdom,DND,EGPN,56.45249938964844,-3.025830030441284,17,0.0,E,Europe/London,airport,534
Stornoway Airport,Stornoway,United Kingdom,SYY,EGPO,58.215599060058594,-6.3311100006103525,26,0.0,E,Europe/London,airport,535
Tiree Airport,Tiree,United Kingdom,TRE,EGPU,56.49919891357422,-6.869170188903809,38,0.0,E,Europe/London,airport,536
RAF Leuchars,Leuchars,United Kingdom,ADX,EGQL,56.37289810180664,-2.8684399127960205,38,0.0,E,Europe/London,airport,537
RAF Lossiemouth,Lossiemouth,United Kingdom,LMO,EGQS,57.7052001953125,-3.339169979095459,42,0.0,E,Europe/London,airport,538
Cambridge Airport,Cambridge,United Kingdom,CBG,EGSC,52.205002,0.175,47,0.0,E,Europe/London,airport,539
Peterborough Business Airport,Peterborough,United Kingdom,\N,EGSF,52.46810150146485,-0.2511110007762909,26,0.0,E,Europe/London,airport,540
Norwich International Airport,Norwich,United Kingdom,NWI,EGSH,52.675800323500006,1.28278005123,117,0.0,E,Europe/London,airport,541
London Stansted Airport,London,United Kingdom,STN,EGSS,51.8849983215,0.234999999404,348,0.0,E,Europe/London,airport,542
North Weald Airport,North Weald,United Kingdom,\N,EGSX,51.721698761000006,0.154166996479,321,0.0,E,Europe/London,airport,543
Sheffield City Heliport,Fowlmere,United Kingdom,\N,EGSY,53.394299,-1.38849,231,0.0,E,Europe/London,airport,544
Cranfield Airport,Cranfield,United Kingdom,\N,EGTC,52.0722007751,-0.616666972637,358,0.0,E,Europe/London,airport,545
Exeter International Airport,Exeter,United Kingdom,EXT,EGTE,50.73440170288086,-3.4138898849487305,102,0.0,E,Europe/London,airport,546
Bristol Filton Airport,Bristol,United Kingdom,FZO,EGTG,51.5194015503,-2.59083008766,226,0.0,E,Europe/London,airport,547
Oxford (Kidlington) Airport,Oxford,United Kingdom,OXF,EGTK,51.8368988037,-1.32000005245,270,0.0,E,Europe/London,airport,548
RAF Benson,Benson,United Kingdom,BEX,EGUB,51.6164016724,-1.09582996368,226,0.0,E,Europe/London,airport,549
RAF Lakenheath,Lakenheath,United Kingdom,LKZ,EGUL,52.4093017578,0.5609999895100001,32,0.0,E,Europe/London,airport,550
RAF Mildenhall,Mildenhall,United Kingdom,MHZ,EGUN,52.36190032958984,0.4864059984683991,33,0.0,E,Europe/London,airport,551
RAF Wattisham,Wattisham,United Kingdom,\N,EGUW,52.1273002625,0.956264019012,284,0.0,E,Europe/London,airport,552
RAF Wyton,Wyton,United Kingdom,QUY,EGUY,52.3572006226,-0.107832998037,135,0.0,E,Europe/London,airport,553
RAF Fairford,Fairford,United Kingdom,FFD,EGVA,51.6822013855,-1.7900300025900002,286,0.0,E,Europe/London,airport,554
RAF Brize Norton,Brize Norton,United Kingdom,BZZ,EGVN,51.75,-1.58362,288,0.0,E,Europe/London,airport,555
RAF Odiham,Odiham,United Kingdom,ODH,EGVO,51.2341003418,-0.94282501936,405,0.0,E,Europe/London,airport,556
DCAE Cosford Air Base,Cosford,United Kingdom,\N,EGWC,52.639999,-2.30558,272,0.0,E,Europe/London,airport,557
RAF Northolt,Northolt,United Kingdom,NHT,EGWU,51.5530014038,-0.418166995049,124,0.0,E,Europe/London,airport,558
RAF Coningsby,Coningsby,United Kingdom,QCY,EGXC,53.0929985046,-0.166014000773,25,0.0,E,Europe/London,airport,559
RAF Dishforth,Dishforth,United Kingdom,\N,EGXD,54.1371994019,-1.42025005817,117,0.0,E,Europe/London,airport,560
Leeming Airport,Leeming,United Kingdom,\N,EGXE,54.2924,-1.5354,132,0.0,E,Europe/London,airport,561
Leeds East Airport,Church Fenton,United Kingdom,\N,EGXG,53.834301,-1.1955,29,0.0,E,Europe/London,airport,562
RAF Honington,Honington,United Kingdom,BEQ,EGXH,52.34260177612305,0.7729390263557434,174,0.0,E,Europe/London,airport,563
RAF Cottesmore,Cottesmore,United Kingdom,\N,EGXJ,52.735699,-0.6487689999999999,461,0.0,E,Europe/London,airport,564
RAF Scampton,Scampton,United Kingdom,SQZ,EGXP,53.307800293,-0.550832986832,202,0.0,E,Europe/London,airport,565
RAF Wittering,Wittering,United Kingdom,\N,EGXT,52.612598,-0.4764529999999999,273,0.0,E,Europe/London,airport,566
RAF Linton-On-Ouse,Linton-on-ouse,United Kingdom,HRT,EGXU,54.0489006042,-1.2527500391,53,0.0,E,Europe/London,airport,567
RAF Waddington,Waddington,United Kingdom,WTN,EGXW,53.1661987305,-0.5238109827040001,231,0.0,E,Europe/London,airport,568
RAF Topcliffe,Topcliffe,United Kingdom,\N,EGXZ,54.2055015564,-1.3820899725,92,0.0,E,Europe/London,airport,569
RAF Cranwell,Cranwell,United Kingdom,\N,EGYD,53.0303001404,-0.4832420051100001,218,0.0,E,Europe/London,airport,570
RAF Barkston Heath,Barkston Heath,United Kingdom,\N,EGYE,52.9622001648,-0.561625003815,367,0.0,E,Europe/London,airport,571
RAF Marham,Marham,United Kingdom,KNF,EGYM,52.648395,0.550692,75,0.0,E,Europe/London,airport,572
Mount Pleasant Airport,Mount Pleasant,Falkland Islands,MPN,EGYP,-51.82279968261719,-58.44720077514648,244,-3.0,U,Atlantic/Stanley,airport,573
Amsterdam Airport Schiphol,Amsterdam,Netherlands,AMS,EHAM,52.308601,4.76389,-11,1.0,E,Europe/Amsterdam,airport,574
Budel Airfield Kempen,Weert,Netherlands,\N,EHBD,51.255299,5.60139,114,1.0,E,Europe/Amsterdam,airport,575
Maastricht Aachen Airport,Maastricht,Netherlands,MST,EHBK,50.911701,5.7701400000000005,375,1.0,E,Europe/Amsterdam,airport,576
Deelen Air Base,Deelen,Netherlands,\N,EHDL,52.0606,5.87306,158,1.0,E,Europe/Amsterdam,airport,577
Drachten Airport,Drachten,Netherlands,\N,EHDR,53.119201660200005,6.12972021103,14,1.0,E,Europe/Amsterdam,airport,578
Eindhoven Airport,Eindhoven,Netherlands,EIN,EHEH,51.4500999451,5.374529838559999,74,1.0,E,Europe/Amsterdam,airport,579
Eelde Airport,Groningen,Netherlands,GRQ,EHGG,53.1197013855,6.579440116880001,17,1.0,E,Europe/Amsterdam,airport,580
Gilze Rijen Air Base,Gilze-rijen,Netherlands,GLZ,EHGR,51.56740188598633,4.931829929351807,49,1.0,E,Europe/Amsterdam,airport,581
De Kooy Airport,De Kooy,Netherlands,DHR,EHKD,52.92340087890625,4.780620098114014,3,1.0,E,Europe/Amsterdam,airport,582
Lelystad Airport,Lelystad,Netherlands,LEY,EHLE,52.4603,5.52722,-13,1.0,E,Europe/Amsterdam,airport,583
Leeuwarden Air Base,Leeuwarden,Netherlands,LWR,EHLW,53.22859954833984,5.760560035705566,3,1.0,E,Europe/Amsterdam,airport,584
Rotterdam The Hague Airport,Rotterdam,Netherlands,RTM,EHRD,51.956902,4.43722,-15,1.0,E,Europe/Amsterdam,airport,585
Soesterberg Air Base,Soesterberg,Netherlands,UTC,EHSB,52.1273002625,5.27618980408,66,1.0,E,Europe/Amsterdam,airport,586
Twente Airport,Enschede,Netherlands,ENS,EHTW,52.275833,6.889167,114,1.0,E,Europe/Amsterdam,airport,587
Valkenburg Naval Air Base,Valkenburg,Netherlands,LID,EHVB,52.1660995483,4.41794013977,1,1.0,E,Europe/Amsterdam,airport,588
Woensdrecht Air Base,Woensdrecht,Netherlands,WOE,EHWO,51.4491,4.34203,63,1.0,E,Europe/Amsterdam,airport,589
Cork Airport,Cork,Ireland,ORK,EICK,51.84130096435547,-8.491109848022461,502,0.0,E,Europe/Dublin,airport,590
Galway Airport,Galway,Ireland,GWY,EICM,53.30020141601562,-8.941590309143066,81,0.0,E,Europe/Dublin,airport,591
Dublin Airport,Dublin,Ireland,DUB,EIDW,53.421299,-6.27007,242,0.0,E,Europe/Dublin,airport,592
Ireland West Knock Airport,Connaught,Ireland,NOC,EIKN,53.9103012084961,-8.818490028381348,665,0.0,E,Europe/Dublin,airport,593
Kerry Airport,Kerry,Ireland,KIR,EIKY,52.18090057373047,-9.52377986907959,112,0.0,E,Europe/Dublin,airport,594
Casement Air Base,Casement,Ireland,\N,EIME,53.301700592,-6.451330184940001,319,0.0,E,Europe/Dublin,airport,595
Shannon Airport,Shannon,Ireland,SNN,EINN,52.702,-8.92482,46,0.0,E,Europe/Dublin,airport,596
Sligo Airport,Sligo,Ireland,SXL,EISG,54.280200958252,-8.599209785461401,11,0.0,E,Europe/Dublin,airport,597
Waterford Airport,Waterford,Ireland,WAT,EIWF,52.18719863891602,-7.086959838867188,119,0.0,E,Europe/Dublin,airport,598
Aarhus Airport,Aarhus,Denmark,AAR,EKAH,56.2999992371,10.619000434899998,82,1.0,E,Europe/Copenhagen,airport,599
Billund Airport,Billund,Denmark,BLL,EKBI,55.7402992249,9.15178012848,247,1.0,E,Europe/Copenhagen,airport,600
Copenhagen Kastrup Airport,Copenhagen,Denmark,CPH,EKCH,55.617900848389,12.656000137329,17,1.0,E,Europe/Copenhagen,airport,601
Esbjerg Airport,Esbjerg,Denmark,EBJ,EKEB,55.525902,8.5534,97,1.0,E,Europe/Copenhagen,airport,602
Grønholt Hillerød Airport,Gronholt,Denmark,\N,EKGH,55.94139862060547,12.382200241088867,97,1.0,E,Europe/Copenhagen,airport,603
Karup Airport,Karup,Denmark,KRP,EKKA,56.29750061035156,9.124629974365234,170,1.0,E,Europe/Copenhagen,airport,604
Læsø Airport,Laeso,Denmark,BYR,EKLS,57.27719879150391,11.000100135803224,25,1.0,E,Europe/Copenhagen,airport,605
Lolland Falster Maribo Airport,Maribo,Denmark,MRW,EKMB,54.699299,11.4401,16,1.0,E,Europe/Copenhagen,airport,606
Odense Airport,Odense,Denmark,ODE,EKOD,55.47669982910156,10.330900192260742,56,1.0,E,Europe/Copenhagen,airport,607
Kruså-Padborg Airport,Krusa-padborg,Denmark,\N,EKPB,54.87030029296875,9.279009819030762,88,1.0,E,Europe/Copenhagen,airport,608
Copenhagen Roskilde Airport,Copenhagen,Denmark,RKE,EKRK,55.58560180664063,12.131400108337402,146,1.0,E,Europe/Copenhagen,airport,609
Bornholm Airport,Ronne,Denmark,RNN,EKRN,55.06330108642578,14.759599685668944,52,1.0,E,Europe/Copenhagen,airport,610
Sønderborg Airport,Soenderborg,Denmark,SGD,EKSB,54.96440124511719,9.791729927062988,24,1.0,E,Europe/Copenhagen,airport,611
Skrydstrup Air Base,Skrydstrup,Denmark,SKS,EKSP,55.221048,9.26702,141,1.0,E,Europe/Copenhagen,airport,612
Skive Airport,Skive,Denmark,SQW,EKSV,56.55020141601562,9.172980308532717,74,1.0,E,Europe/Copenhagen,airport,613
Thisted Airport,Thisted,Denmark,TED,EKTS,57.06880187988281,8.705220222473145,23,1.0,E,Europe/Copenhagen,airport,614
Kolding Vamdrup Airfield,Kolding,Denmark,\N,EKVD,55.436298,9.33092,143,1.0,E,Europe/Copenhagen,airport,615
Vagar Airport,Vagar,Faroe Islands,FAE,EKVG,62.0635986328125,-7.277219772338867,280,0.0,E,Atlantic/Faeroe,airport,616
Vesthimmerlands Flyveplads,Vesthimmerland,Denmark,\N,EKVH,56.846901,9.45861,119,1.0,E,Europe/Copenhagen,airport,617
Stauning Airport,Stauning,Denmark,STA,EKVJ,55.9901008605957,8.353910446166992,17,1.0,E,Europe/Copenhagen,airport,618
Aalborg Airport,Aalborg,Denmark,AAL,EKYT,57.0927589138,9.84924316406,10,1.0,E,Europe/Copenhagen,airport,619
Luxembourg-Findel International Airport,Luxemburg,Luxembourg,LUX,ELLX,49.6233333,6.204444400000001,1234,1.0,E,Europe/Luxembourg,airport,620
Ålesund Airport,Alesund,Norway,AES,ENAL,62.5625,6.119699954986572,69,1.0,E,Europe/Oslo,airport,621
Andøya Airport,Andoya,Norway,ANX,ENAN,69.292503356934,16.144199371338,43,1.0,E,Europe/Oslo,airport,622
Alta Airport,Alta,Norway,ALF,ENAT,69.976097106934,23.371700286865,9,1.0,E,Europe/Oslo,airport,623
Bømoen Airport,Voss,Norway,\N,ENBM,60.63890075683594,6.501500129699707,300,1.0,E,Europe/Oslo,airport,624
Brønnøysund Airport,Bronnoysund,Norway,BNN,ENBN,65.461097717285,12.217499732971,25,1.0,E,Europe/Oslo,airport,625
Bodø Airport,Bodo,Norway,BOO,ENBO,67.26920318603516,14.365300178527832,42,1.0,E,Europe/Oslo,airport,626
Bergen Airport Flesland,Bergen,Norway,BGO,ENBR,60.29339981,5.218140125,170,1.0,E,Europe/Oslo,airport,627
Båtsfjord Airport,Batsfjord,Norway,BJF,ENBS,70.60050201416,29.691400527954,490,1.0,E,Europe/Oslo,airport,628
Kristiansand Airport,Kristiansand,Norway,KRS,ENCN,58.204201,8.08537,57,1.0,E,Europe/Oslo,airport,629
Geilo Airport Dagali,Geilo,Norway,DLD,ENDI,60.41730117797852,8.518349647521973,2618,1.0,E,Europe/Oslo,airport,630
Bardufoss Airport,Bardufoss,Norway,BDU,ENDU,69.055801391602,18.540399551392,252,1.0,E,Europe/Oslo,airport,631
"Harstad/Narvik Airport, Evenes",Harstad/Narvik,Norway,EVE,ENEV,68.491302490234,16.678100585938,84,1.0,E,Europe/Oslo,airport,632
Leirin Airport,Fagernes,Norway,VDB,ENFG,61.015598297119,9.2880601882935,2697,1.0,E,Europe/Oslo,airport,633
Florø Airport,Floro,Norway,FRO,ENFL,61.583599090576,5.0247201919556,37,1.0,E,Europe/Oslo,airport,634
Oslo Lufthavn,Oslo,Norway,OSL,ENGM,60.121,11.0502,681,1.0,E,Europe/Oslo,airport,635
Haugesund Airport,Haugesund,Norway,HAU,ENHD,59.34529876709001,5.208360195159901,86,1.0,E,Europe/Oslo,airport,636
Hasvik Airport,Hasvik,Norway,HAA,ENHK,70.486701965332,22.139699935913,21,1.0,E,Europe/Oslo,airport,637
Kristiansund Airport (Kvernberget),Kristiansund,Norway,KSU,ENKB,63.111801147461,7.824520111083999,204,1.0,E,Europe/Oslo,airport,638
Kjeller Airport,Kjeller,Norway,\N,ENKJ,59.9692993164,11.0361003876,354,1.0,E,Europe/Oslo,airport,639
Kirkenes Airport (Høybuktmoen),Kirkenes,Norway,KKN,ENKR,69.725799560547,29.891300201416,283,1.0,E,Europe/Oslo,airport,640
Lista Airport,Farsund,Norway,FAN,ENLI,58.0994987487793,6.626049995422362,29,1.0,E,Europe/Oslo,airport,641
Molde Airport,Molde,Norway,MOL,ENML,62.744701385498,7.262499809265099,10,1.0,E,Europe/Oslo,airport,642
Mosjøen Airport (Kjærstad),Mosjoen,Norway,MJF,ENMS,65.78399658203101,13.214900016785,237,1.0,E,Europe/Oslo,airport,643
Banak Airport,Lakselv,Norway,LKL,ENNA,70.068801879883,24.973499298096,25,1.0,E,Europe/Oslo,airport,644
Notodden Airport,Notodden,Norway,NTB,ENNO,59.565701,9.21222,63,1.0,E,Europe/Oslo,airport,645
Ørland Airport,Orland,Norway,OLA,ENOL,63.69889831542969,9.604000091552734,28,1.0,E,Europe/Oslo,airport,646
Røros Airport,Roros,Norway,RRS,ENRO,62.57839965820301,11.342300415039,2054,1.0,E,Europe/Oslo,airport,647
"Moss Airport, Rygge",Rygge,Norway,RYG,ENRY,59.378817000000005,10.785439,174,1.0,E,Europe/Oslo,airport,648
"Svalbard Airport, Longyear",Svalbard,Norway,LYR,ENSB,78.246101379395,15.465600013733,88,1.0,E,Arctic/Longyearbyen,airport,649
Skien Airport,Skien,Norway,SKE,ENSN,59.18500137329102,9.566940307617188,463,1.0,E,Europe/Oslo,airport,650
Stord Airport,Stord,Norway,SRP,ENSO,59.79190063476562,5.340849876403809,160,1.0,E,Europe/Oslo,airport,651
Sandnessjøen Airport (Stokka),Sandnessjoen,Norway,SSJ,ENST,65.95680236816399,12.468899726868,56,1.0,E,Europe/Oslo,airport,652
"Tromsø Airport,",Tromso,Norway,TOS,ENTC,69.68329620361328,18.91889953613281,31,1.0,E,Europe/Oslo,airport,653
"Sandefjord Airport, Torp",Sandefjord,Norway,TRF,ENTO,59.1866989136,10.258600235,286,1.0,E,Europe/Oslo,airport,654
Trondheim Airport Værnes,Trondheim,Norway,TRD,ENVA,63.45780179999999,10.9239998,56,1.0,E,Europe/Oslo,airport,655
Stavanger Airport Sola,Stavanger,Norway,SVG,ENZV,58.876701354,5.637780189500001,29,1.0,E,Europe/Oslo,airport,656
Babice Airport,Warsaw,Poland,\N,EPBC,52.26850128173828,20.910999298095703,352,1.0,E,Europe/Warsaw,airport,657
Gdańsk Lech Wałęsa Airport,Gdansk,Poland,GDN,EPGD,54.37760162353516,18.46619987487793,489,1.0,E,Europe/Warsaw,airport,658
Kraków John Paul II International Airport,Krakow,Poland,KRK,EPKK,50.077702,19.7848,791,1.0,E,Europe/Warsaw,airport,659
Muchowiec Airport,Katowice,Poland,\N,EPKM,50.23809814453125,19.03420066833496,909,1.0,E,Europe/Warsaw,airport,660
Katowice International Airport,Katowice,Poland,KTW,EPKT,50.4743,19.08,995,1.0,E,Europe/Warsaw,airport,661
Mielec Airport,Mielec,Poland,\N,EPML,50.32229995727539,21.462099075317383,548,1.0,E,Europe/Warsaw,airport,662
Poznań-Ławica Airport,Poznan,Poland,POZ,EPPO,52.4210014343,16.8262996674,308,1.0,E,Europe/Warsaw,airport,663
Rzeszów-Jasionka Airport,Rzeszow,Poland,RZE,EPRZ,50.1100006104,22.0189990997,675,1.0,E,Europe/Warsaw,airport,664
"Szczecin-Goleniów ""Solidarność"" Airport",Szczecin,Poland,SZZ,EPSC,53.584701538100006,14.9021997452,154,1.0,E,Europe/Warsaw,airport,665
Redzikowo Air Base,Slupsk,Poland,OSP,EPSK,54.47890090942383,17.107500076293945,217,1.0,E,Europe/Warsaw,airport,666
Swidwin Military Air Base,Shapaja,Poland,\N,EPSN,53.790599823,15.8262996674,385,1.0,E,Europe/Warsaw,airport,667
Warsaw Chopin Airport,Warsaw,Poland,WAW,EPWA,52.1656990051,20.9671001434,362,1.0,E,Europe/Warsaw,airport,668
Copernicus Wrocław Airport,Wroclaw,Poland,WRO,EPWR,51.10269927979999,16.885799408,404,1.0,E,Europe/Warsaw,airport,669
Zielona Góra-Babimost Airport,Zielona Gora,Poland,IEG,EPZG,52.1385002136,15.7986001968,194,1.0,E,Europe/Warsaw,airport,670
Malmen Air Base,Linkoeping,Sweden,\N,ESCF,58.40230178833008,15.525699615478516,308,1.0,E,Europe/Stockholm,airport,671
Bråvalla Air Base,Norrkoeping,Sweden,\N,ESCK,58.61090087890625,16.103599548339847,90,1.0,E,Europe/Stockholm,airport,672
Uppsala Airport,Uppsala,Sweden,\N,ESCM,59.89730072021485,17.588600158691403,68,1.0,E,Europe/Stockholm,airport,673
Ronneby Airport,Ronneby,Sweden,RNB,ESDF,56.266700744629,15.265000343323,191,1.0,E,Europe/Stockholm,airport,674
Råda Air Base,Rada,Sweden,\N,ESFR,58.49810028076172,13.053199768066404,230,1.0,E,Europe/Stockholm,airport,675
Gothenburg-Landvetter Airport,Gothenborg,Sweden,GOT,ESGG,57.662799835205,12.279800415039,506,1.0,E,Europe/Stockholm,airport,676
Jönköping Airport,Joenkoeping,Sweden,JKG,ESGJ,57.75759887695313,14.068699836730955,741,1.0,E,Europe/Stockholm,airport,677
Falköping Airport,Falkoping,Sweden,\N,ESGK,58.1697998046875,13.58780002593994,785,1.0,E,Europe/Stockholm,airport,678
Lidköping-Hovby Airport,Lidkoping,Sweden,LDK,ESGL,58.4655,13.1744,200,1.0,E,Europe/Stockholm,airport,679
Gothenburg City Airport,Gothenborg,Sweden,GSE,ESGP,57.7747,11.8704,59,1.0,E,Europe/Stockholm,airport,680
Skövde Airport,Skovde,Sweden,KVB,ESGR,58.45640182495117,13.972700119018556,324,1.0,E,Europe/Stockholm,airport,681
Trollhättan-Vänersborg Airport,Trollhattan,Sweden,THN,ESGT,58.31809997558594,12.345000267028809,137,1.0,E,Europe/Stockholm,airport,682
Karlsborg Air Base,Karlsborg,Sweden,\N,ESIA,58.51380157470703,14.507100105285645,308,1.0,E,Europe/Stockholm,airport,683
Såtenäs Air Base,Satenas,Sweden,\N,ESIB,58.42639923095703,12.714400291442873,181,1.0,E,Europe/Stockholm,airport,684
Barkarby Airport,Stockholm,Sweden,\N,ESKB,59.41447436439999,17.8821372986,50,1.0,E,Europe/Stockholm,airport,685
Karlskoga Airport,Karlskoga,Sweden,KSK,ESKK,59.34590148925781,14.49590015411377,400,1.0,E,Europe/Stockholm,airport,686
Mora Airport,Mora,Sweden,MXX,ESKM,60.957901,14.5114,634,1.0,E,Europe/Stockholm,airport,687
Stockholm Skavsta Airport,Stockholm,Sweden,NYO,ESKN,58.78860092163086,16.912200927734375,140,1.0,E,Europe/Stockholm,airport,688
Arvika Airport,Arvika,Sweden,\N,ESKV,59.6759,12.6394,237,1.0,E,Europe/Stockholm,airport,689
Emmaboda Airfield,Emmaboda,Sweden,\N,ESMA,56.610802,15.6048,442,1.0,E,Europe/Stockholm,airport,690
Feringe Airport,Ljungby,Sweden,\N,ESMG,56.9502983093,13.9216995239,538,1.0,E,Europe/Stockholm,airport,691
Kristianstad Airport,Kristianstad,Sweden,KID,ESMK,55.92169952392578,14.08549976348877,76,1.0,E,Europe/Stockholm,airport,692
Landskrona Airport,Landskrona,Sweden,\N,ESML,55.94599914550781,12.869999885559082,194,1.0,E,Europe/Stockholm,airport,693
Oskarshamn Airport,Oskarshamn,Sweden,OSK,ESMO,57.350498,16.497999,96,1.0,E,Europe/Stockholm,airport,694
Anderstorp Airport,Anderstorp,Sweden,\N,ESMP,57.264198303222656,13.59939956665039,507,1.0,E,Europe/Stockholm,airport,695
Kalmar Airport,Kalkmar,Sweden,KLR,ESMQ,56.68550109863281,16.287599563598633,17,1.0,E,Europe/Stockholm,airport,696
Malmö Sturup Airport,Malmoe,Sweden,MMX,ESMS,55.53630536399999,13.3761978149,236,1.0,E,Europe/Stockholm,airport,697
Halmstad Airport,Halmstad,Sweden,HAD,ESMT,56.69110107421875,12.820199966430664,101,1.0,E,Europe/Stockholm,airport,698
Hagshult Air Base,Hagshult,Sweden,\N,ESMV,57.292198,14.1372,556,1.0,E,Europe/Stockholm,airport,699
Växjö Kronoberg Airport,Vaxjo,Sweden,VXO,ESMX,56.92910003662109,14.727999687194824,610,1.0,E,Europe/Stockholm,airport,700
Hallviken Airport,Hallviken,Sweden,\N,ESNA,63.73830032348633,15.45829963684082,1119,1.0,E,Europe/Stockholm,airport,701
Hedlanda Airport,Hede,Sweden,\N,ESNC,62.40890121459999,13.7472000122,1460,1.0,E,Europe/Stockholm,airport,702
Sveg Airport,Sveg,Sweden,EVG,ESND,62.04779815673828,14.422900199890137,1178,1.0,E,Europe/Stockholm,airport,703
Gällivare Airport,Gallivare,Sweden,GEV,ESNG,67.13240051269531,20.814599990844727,1027,1.0,E,Europe/Stockholm,airport,704
Hudiksvall Airport,Hudiksvall,Sweden,HUV,ESNH,61.7681007385,17.0806999207,95,1.0,E,Europe/Stockholm,airport,705
Jokkmokk Airport,Jokkmokk,Sweden,\N,ESNJ,66.49620056152344,20.147199630737305,904,1.0,E,Europe/Stockholm,airport,706
Kramfors Sollefteå Airport,Kramfors,Sweden,KRF,ESNK,63.04859924316406,17.76889991760254,34,1.0,E,Europe/Stockholm,airport,707
Lycksele Airport,Lycksele,Sweden,LYC,ESNL,64.54830169677734,18.71619987487793,705,1.0,E,Europe/Stockholm,airport,708
Optand Airport,Optand,Sweden,\N,ESNM,63.12860107421875,14.802800178527832,1236,1.0,E,Europe/Stockholm,airport,709
Sundsvall-Härnösand Airport,Sundsvall,Sweden,SDL,ESNN,62.528099060058594,17.443899154663086,16,1.0,E,Europe/Stockholm,airport,710
Örnsköldsvik Airport,Ornskoldsvik,Sweden,OER,ESNO,63.40829849243164,18.989999771118164,354,1.0,E,Europe/Stockholm,airport,711
Piteå Airport,Pitea,Sweden,\N,ESNP,65.39830017089844,21.260799407958984,43,1.0,E,Europe/Stockholm,airport,712
Kiruna Airport,Kiruna,Sweden,KRN,ESNQ,67.821998596191,20.336799621582,1508,1.0,E,Europe/Stockholm,airport,713
Orsa Airport,Orsa,Sweden,\N,ESNR,61.18999862670898,14.712599754333494,683,1.0,E,Europe/Stockholm,airport,714
Skellefteå Airport,Skelleftea,Sweden,SFT,ESNS,64.62480163574219,21.07690048217773,157,1.0,E,Europe/Stockholm,airport,715
Sättna Airport,Sattna,Sweden,\N,ESNT,62.4814,17.002899,886,1.0,E,Europe/Stockholm,airport,716
Umeå Airport,Umea,Sweden,UME,ESNU,63.791801452637,20.282800674438,24,1.0,E,Europe/Stockholm,airport,717
Vilhelmina Airport,Vilhelmina,Sweden,VHM,ESNV,64.5791015625,16.833599090576172,1140,1.0,E,Europe/Stockholm,airport,718
Arvidsjaur Airport,Arvidsjaur,Sweden,AJR,ESNX,65.59030151367189,19.28190040588379,1245,1.0,E,Europe/Stockholm,airport,719
Örebro Airport,Orebro,Sweden,ORB,ESOE,59.22370147705078,15.038000106811523,188,1.0,E,Europe/Stockholm,airport,720
Stockholm Västerås Airport,Vasteras,Sweden,VST,ESOW,59.58940124511719,16.633600234985348,21,1.0,E,Europe/Stockholm,airport,721
Luleå Airport,Lulea,Sweden,LLA,ESPA,65.543800354004,22.121999740601,65,1.0,E,Europe/Stockholm,airport,722
Vidsel Air Base,Vidsel,Sweden,\N,ESPE,65.87529754638672,20.149900436401367,597,1.0,E,Europe/Stockholm,airport,723
Arboga Airport,Arboga,Sweden,\N,ESQO,59.38660049438477,15.924099922180176,33,1.0,E,Europe/Stockholm,airport,724
Stockholm-Arlanda Airport,Stockholm,Sweden,ARN,ESSA,59.651901245117,17.918600082397,137,1.0,E,Europe/Stockholm,airport,725
Stockholm-Bromma Airport,Stockholm,Sweden,BMA,ESSB,59.35440063476562,17.941699981689453,47,1.0,E,Europe/Stockholm,airport,726
Borlange Airport,Borlange,Sweden,BLE,ESSD,60.42200088500977,15.515199661254885,503,1.0,E,Europe/Stockholm,airport,727
Hultsfred Airport,Hultsfred,Sweden,HLF,ESSF,57.525799,15.8233,366,1.0,E,Europe/Stockholm,airport,728
Gävle Sandviken Airport,Gavle,Sweden,GVX,ESSK,60.593299865722656,16.951400756835938,224,1.0,E,Europe/Stockholm,airport,729
Linköping City Airport,Linkoeping,Sweden,LPI,ESSL,58.406200408900006,15.6805000305,172,1.0,E,Europe/Stockholm,airport,730
Norrköping Airport,Norrkoeping,Sweden,NRK,ESSP,58.58629989624024,16.250600814819336,32,1.0,E,Europe/Stockholm,airport,731
Eskilstuna Airport,Eskilstuna,Sweden,EKT,ESSU,59.35110092163086,16.70840072631836,139,1.0,E,Europe/Stockholm,airport,732
Visby Airport,Visby,Sweden,VBY,ESSV,57.662799835205,18.346200942993,164,1.0,E,Europe/Stockholm,airport,733
Kalixfors Airport,Kalixfors,Sweden,\N,ESUK,67.76480102539061,20.257200241088867,1549,1.0,E,Europe/Stockholm,airport,734
Spangdahlem Air Base,Spangdahlem,Germany,SPM,ETAD,49.9726982117,6.6925001144400005,1197,1.0,E,Europe/Berlin,airport,735
Ramstein Air Base,Ramstein,Germany,RMS,ETAR,49.4369010925293,7.600279808044434,776,1.0,E,Europe/Berlin,airport,736
[Duplicate] Giebelstadt Army Air Field,Giebelstadt,Germany,GHF,ETEU,49.6481018066,9.966489791870002,980,1.0,E,Europe/Berlin,airport,737
Bückeburg Air Base,Brueckeburg,Germany,\N,ETHB,52.2785,9.08217,230,1.0,E,Europe/Berlin,airport,738
Celle Airport,Celle,Germany,ZCN,ETHC,52.59120178222656,10.022100448608398,129,1.0,E,Europe/Berlin,airport,739
Rheine Bentlage Air Base,Rheine-brentlange,Germany,\N,ETHE,52.291199,7.387,129,1.0,E,Europe/Berlin,airport,740
Fritzlar Airport,Fritzlar,Germany,FRZ,ETHF,51.1146,9.286,1345,1.0,E,Europe/Berlin,airport,741
Laupheim Air Base,Laupheim,Germany,\N,ETHL,48.220299,9.91002,1766,1.0,E,Europe/Berlin,airport,742
Mendig Airfield,Mendig,Germany,\N,ETHM,50.366001,7.31533,597,1.0,E,Europe/Berlin,airport,743
Niederstetten Army Air Base,Niederstetten,Germany,\N,ETHN,49.391945,9.958889,1339,1.0,E,Europe/Berlin,airport,744
Roth Airport,Roth,Germany,\N,ETHR,49.21749877929688,11.100199699401855,1268,1.0,E,Europe/Berlin,airport,745
Fassberg Air Base,Fassberg,Germany,\N,ETHS,52.919399,10.185827,245,1.0,E,Europe/Berlin,airport,746
Grafenwohr Army Air Field,Grafenwoehr,Germany,\N,ETIC,49.69869995117188,11.940199851989744,1363,1.0,E,Europe/Berlin,airport,747
Hanau Army Air Field,Hanau,Germany,ZNF,ETID,50.169201,8.96159,368,1.0,E,Europe/Berlin,airport,748
Hohenfels Army Air Field,Hohenfels,Germany,\N,ETIH,49.21810150146485,11.836099624633787,1455,1.0,E,Europe/Berlin,airport,749
Flugplatz Kitzingen,Kitzingen,Germany,KZG,ETIN,49.743099,10.2006,689,1.0,E,Europe/Berlin,airport,750
Nordholz Naval Airbase,Nordholz,Germany,FCN,ETMN,53.7677001953,8.658499717709999,74,1.0,E,Europe/Berlin,airport,751
Diepholz Air Base,Diepholz,Germany,\N,ETND,52.585556,8.342222,128,1.0,E,Europe/Berlin,airport,752
Geilenkirchen Air Base,Geilenkirchen,Germany,GKE,ETNG,50.9608,6.04242,296,1.0,E,Europe/Berlin,airport,753
Hohn Air Base,Hohn,Germany,\N,ETNH,54.312199,9.53817,39,1.0,E,Europe/Berlin,airport,754
Jever Air Base,Jever,Germany,\N,ETNJ,53.533501,7.888669999999999,24,1.0,E,Europe/Berlin,airport,755
Rostock-Laage Airport,Laage,Germany,RLG,ETNL,53.9182014465,12.2783002853,138,1.0,E,Europe/Berlin,airport,756
Nörvenich Air Base,Noervenich,Germany,\N,ETNN,50.8312,6.65817,386,1.0,E,Europe/Berlin,airport,757
Schleswig Air Base,Schleswig,Germany,WBG,ETNS,54.459301,9.51633,70,1.0,E,Europe/Berlin,airport,758
Wittmundhafen Airport,Wittmundhafen,Germany,\N,ETNT,53.54779815673828,7.667329788208008,26,1.0,E,Europe/Berlin,airport,759
Wunstorf Air Base,Wunstorf,Germany,\N,ETNW,52.457298,9.42717,187,1.0,E,Europe/Berlin,airport,760
Vilseck Army Air Field,Vilseck,Germany,\N,ETOI,49.63359832763672,11.767200469970703,1353,1.0,E,Europe/Berlin,airport,761
Coleman Army Air Field,Coleman,Germany,\N,ETOR,49.5635986328125,8.463390350341799,309,1.0,E,Europe/Berlin,airport,762
Wiesbaden Army Airfield,Wiesbaden,Germany,WIE,ETOU,50.04980087280274,8.325400352478027,461,1.0,E,Europe/Berlin,airport,763
Landsberg Lech Air Base,Landsberg,Germany,\N,ETSA,48.070599,10.906,2044,1.0,E,Europe/Berlin,airport,764
Büchel Air Base,Buechel,Germany,\N,ETSB,50.1738014221,7.06333017349,1568,1.0,E,Europe/Berlin,airport,765
Erding Airport,Erding,Germany,\N,ETSE,48.32229995727539,11.948699951171877,1515,1.0,E,Europe/Berlin,airport,766
Fürstenfeldbruck Air Base,Fuerstenfeldbruck,Germany,FEL,ETSF,48.205555,11.266944,1703,1.0,E,Europe/Berlin,airport,767
Holzdorf Air Base,Holzdorf,Germany,\N,ETSH,51.767799,13.1677,265,1.0,E,Europe/Berlin,airport,768
Ingolstadt Manching Airport,Ingolstadt,Germany,IGS,ETSI,48.7156982421875,11.534000396728516,1202,1.0,E,Europe/Berlin,airport,769
Lechfeld Air Base,Lechfeld,Germany,\N,ETSL,48.185504,10.8612,1822,1.0,E,Europe/Berlin,airport,770
Neuburg AFB,Neuburg,Germany,\N,ETSN,48.710999,11.2115,1249,1.0,E,Europe/Berlin,airport,771
Gütersloh Air Base,Guetersloh,Germany,GUT,ETUO,51.922798,8.30633,236,1.0,E,Europe/Berlin,airport,772
Alexander Bay Airport,Alexander Bay,South Africa,ALJ,FAAB,-28.575001,16.5333,98,2.0,U,Africa/Johannesburg,airport,773
Aggeneys Airport,Aggeneys,South Africa,AGZ,FAAG,-29.28179931640625,18.813899993896484,2648,2.0,U,Africa/Johannesburg,airport,774
Brakpan Airport,Brakpan,South Africa,\N,FABB,-26.23859977722168,28.30179977416992,5300,2.0,U,Africa/Johannesburg,airport,775
Bisho Airport,Bisho,South Africa,BIY,FABE,-32.897098541300004,27.2791004181,1950,2.0,U,Africa/Johannesburg,airport,776
Bram Fischer International Airport,Bloemfontein,South Africa,BFN,FABL,-29.0926990509,26.302400589,4458,2.0,U,Africa/Johannesburg,airport,777
Bethlehem Airport,Bethlehem,South Africa,\N,FABM,-28.2483997345,28.3360996246,5561,2.0,U,Africa/Johannesburg,airport,778
Hendrik Potgieter Airport,Bothaville,South Africa,\N,FABO,-27.36680030822754,26.62919998168945,4236,2.0,U,Africa/Johannesburg,airport,779
Cape Town International Airport,Cape Town,South Africa,CPT,FACT,-33.9648017883,18.6016998291,151,2.0,U,Africa/Johannesburg,airport,780
Calvinia Airport,Calvinia,South Africa,\N,FACV,-31.50029945373535,19.72590065002441,3250,2.0,U,Africa/Johannesburg,airport,781
King Shaka International Airport,Durban,South Africa,DUR,FALE,-29.6144444444,31.1197222222,295,2.0,U,Africa/Johannesburg,airport,782
Ben Schoeman Airport,East London,South Africa,ELS,FAEL,-33.0355987549,27.8258991241,435,2.0,U,Africa/Johannesburg,airport,783
Ermelo Airport,Ermelo,South Africa,\N,FAEO,-26.4955997467041,29.979799270629886,5700,2.0,U,Africa/Johannesburg,airport,784
Ficksburg Sentraoes Airport,Ficksburg,South Africa,FCB,FAFB,-28.82309913635254,27.908899307250977,5315,2.0,U,Africa/Johannesburg,airport,785
Grand Central Airport,Johannesburg,South Africa,GCJ,FAGC,-25.986299514799995,28.1401004791,5325,2.0,U,Africa/Johannesburg,airport,786
George Airport,George,South Africa,GRJ,FAGG,-34.0056,22.378902,648,2.0,U,Africa/Johannesburg,airport,787
Graaff Reinet Airport,Graaff Reinet,South Africa,\N,FAGR,-32.19359970092773,24.541400909423828,2604,2.0,U,Africa/Johannesburg,airport,788
Grahamstown Airport,Grahamstown,South Africa,\N,FAGT,-33.284698486328125,26.49810028076172,2135,2.0,U,Africa/Johannesburg,airport,789
Greytown Airport,Greytown,South Africa,\N,FAGY,-29.1219997406,30.5867004395,3531,2.0,U,Africa/Johannesburg,airport,790
Harmony Airport,Harmony,South Africa,\N,FAHA,-28.07869911193848,26.8612003326416,4399,2.0,U,Africa/Johannesburg,airport,791
Harrismith Airport,Harrismith,South Africa,HRS,FAHR,-28.23509979248047,29.10619926452637,5585,2.0,U,Africa/Johannesburg,airport,792
Hoedspruit Air Force Base Airport,Hoedspruit,South Africa,HDS,FAHS,-24.3686008453,31.048700332600003,1743,2.0,U,Africa/Johannesburg,airport,793
Gariep Dam Airport,Hendrik Verwoerddam,South Africa,\N,FAHV,-30.56220054626465,25.52829933166504,4176,2.0,U,Africa/Johannesburg,airport,794
OR Tambo International Airport,Johannesburg,South Africa,JNB,FAOR,-26.1392,28.246,5558,2.0,U,Africa/Johannesburg,airport,795
P C Pelser Airport,Klerksdorp,South Africa,KXE,FAKD,-26.8710994720459,26.718000411987305,4444,2.0,U,Africa/Johannesburg,airport,796
Kimberley Airport,Kimberley,South Africa,KIM,FAKM,-28.802799224900003,24.7651996613,3950,2.0,U,Africa/Johannesburg,airport,797
Krugersdorp Airport,Krugersdorp,South Africa,\N,FAKR,-26.0808259199,27.7259149551,5499,2.0,U,Africa/Johannesburg,airport,798
Kroonstad Airport,Kroonstad,South Africa,\N,FAKS,-27.660600662231445,27.31579971313477,4700,2.0,U,Africa/Johannesburg,airport,799
Johan Pienaar Airport,Kuruman,South Africa,KMH,FAKU,-27.45669937133789,23.411399841308597,4382,2.0,U,Africa/Johannesburg,airport,800
Kleinsee Airport,Kleinsee,South Africa,KLZ,FAKZ,-29.6884002686,17.093999862700002,270,2.0,U,Africa/Johannesburg,airport,801
Lanseria Airport,Johannesburg,South Africa,HLA,FALA,-25.9384994507,27.9260997772,4517,2.0,U,Africa/Johannesburg,airport,802
Lichtenburg Airport,Lichtenburg,South Africa,\N,FALI,-26.17569923400879,26.184600830078125,4875,2.0,U,Africa/Johannesburg,airport,803
Makhado Air Force Base Airport,Lambertsbaai,South Africa,\N,FALM,-23.159900665283203,29.69650077819824,3069,2.0,U,Africa/Johannesburg,airport,804
Langebaanweg Airport,Langebaanweg,South Africa,SDB,FALW,-32.9688987732,18.1602993011,108,2.0,U,Africa/Johannesburg,airport,805
Ladysmith Airport,Ladysmith,South Africa,LAY,FALY,-28.5816993713,29.7497005463,3548,2.0,U,Africa/Johannesburg,airport,806
Middelburg Airport,Middelburg,South Africa,\N,FAMB,-25.68479919433593,29.440200805664062,4886,2.0,U,Africa/Johannesburg,airport,807
Margate Airport,Margate,South Africa,MGH,FAMG,-30.8574008942,30.343000412,495,2.0,U,Africa/Johannesburg,airport,808
Marble Hall Airport,Marble Hall,South Africa,\N,FAMI,-24.98909950256348,29.283100128173828,2980,2.0,U,Africa/Johannesburg,airport,809
Majuba Power Station Airport,Majuba Power Station,South Africa,\N,FAMJ,-27.0792999268,29.7784996033,5600,2.0,U,Africa/Johannesburg,airport,810
Riverside Airport,Malalane,South Africa,LLE,FAMN,-25.4300003052,31.5767002106,1024,2.0,U,Africa/Johannesburg,airport,811
Morningside Farm Airport,Musina,South Africa,\N,FAMS,-25.7045001984,26.9090003967,4251,2.0,U,Africa/Johannesburg,airport,812
Mkuze Airport,Mkuze,South Africa,MZQ,FAMU,-27.62610054016113,32.044300079345696,400,2.0,U,Africa/Johannesburg,airport,813
Newcastle Airport,Newcastle,South Africa,NCS,FANC,-27.7705993652,29.9769001007,4074,2.0,U,Africa/Johannesburg,airport,814
Nylstroom Airfield,Nylstroom,South Africa,\N,FANY,-24.68610000610352,28.43490028381348,3900,2.0,U,Africa/Johannesburg,airport,815
Overberg Airport,Overberg,South Africa,OVG,FAOB,-34.554901123,20.250699996900003,52,2.0,U,Africa/Johannesburg,airport,816
Oudtshoorn Airport,Oudtshoorn,South Africa,OUH,FAOH,-33.6069984436,22.188999176,1063,2.0,U,Africa/Johannesburg,airport,817
Port Elizabeth Airport,Port Elizabeth,South Africa,PLZ,FAPE,-33.984901428200004,25.617300033600003,226,2.0,U,Africa/Johannesburg,airport,818
Plettenberg Bay Airport,Plettenberg Bay,South Africa,PBZ,FAPG,-34.0881601675,23.3287234306,465,2.0,U,Africa/Johannesburg,airport,819
Hendrik Van Eck Airport,Phalaborwa,South Africa,PHW,FAPH,-23.9372005463,31.1553993225,1432,2.0,U,Africa/Johannesburg,airport,820
Pietersburg Municipal Airport,Polokwane,South Africa,\N,FAPI,-23.9260997772,29.484399795500003,4354,2.0,U,Africa/Johannesburg,airport,821
Port St Johns Airport,Port Saint Johns,South Africa,JOH,FAPJ,-31.605899810791016,29.51980018615723,1227,2.0,U,Africa/Johannesburg,airport,822
Pietermaritzburg Airport,Pietermaritzburg,South Africa,PZB,FAPM,-29.6490001678,30.3987007141,2423,2.0,U,Africa/Johannesburg,airport,823
Pilanesberg International Airport,Pilanesberg,South Africa,NTY,FAPN,-25.3337993622,27.173400878900004,3412,2.0,U,Africa/Johannesburg,airport,824
Polokwane International Airport,Potgietersrus,South Africa,PTG,FAPP,-23.845269,29.458615,4076,2.0,U,Africa/Johannesburg,airport,825
Potchefstroom Airport,Potchefstroom,South Africa,PCF,FAPS,-26.670999527,27.0818996429,4520,2.0,U,Africa/Johannesburg,airport,826
Parys Airport,Parys,South Africa,\N,FAPY,-26.889299392700195,27.503400802612305,4740,2.0,U,Africa/Johannesburg,airport,827
Queenstown Airport,Queenstown,South Africa,UTW,FAQT,-31.92020034790039,26.88220024108887,3637,2.0,U,Africa/Johannesburg,airport,828
Richards Bay Airport,Richard's Bay,South Africa,RCB,FARB,-28.740999221800003,32.0920982361,109,2.0,U,Africa/Johannesburg,airport,829
Rustenburg Airport,Rustenburg,South Africa,\N,FARG,-25.6443004608,27.2710990906,3700,2.0,U,Africa/Johannesburg,airport,830
Robertson Airport,Robertson,South Africa,ROD,FARS,-33.812198638916016,19.90279960632324,640,2.0,U,Africa/Johannesburg,airport,831
Springbok Airport,Springbok,South Africa,SBU,FASB,-29.68930053710937,17.939599990844727,2690,2.0,U,Africa/Johannesburg,airport,832
Secunda Airport,Secunda,South Africa,ZEC,FASC,-26.52409935,29.1700992584,5250,2.0,U,Africa/Johannesburg,airport,833
Saldanha /Vredenburg Airport,Saldanha,South Africa,\N,FASD,-32.964099884,17.9692993164,50,2.0,U,Africa/Johannesburg,airport,834
Springs Airfield,Springs,South Africa,\N,FASI,-26.2494004736,28.398271560700003,5340,2.0,U,Africa/Johannesburg,airport,835
Swartkop Air Force Base,Swartkop,South Africa,\N,FASK,-25.8097000122,28.1646003723,4780,2.0,U,Africa/Johannesburg,airport,836
Sishen Airport,Sishen,South Africa,SIS,FASS,-27.6485996246,22.9993000031,3848,2.0,U,Africa/Johannesburg,airport,837
Hendrik Swellengrebel Airport,Swellendam,South Africa,\N,FASX,-34.04819869995117,20.47459983825684,407,2.0,U,Africa/Johannesburg,airport,838
Skukuza Airport,Skukuza,South Africa,SZK,FASZ,-24.960899353,31.5886993408,1020,2.0,U,Africa/Johannesburg,airport,839
Tommys Field Airport,Tommy's Field,South Africa,\N,FATF,-28.26000022888184,22.993200302124023,4360,2.0,U,Africa/Johannesburg,airport,840
New Tempe Airport,Bloemfontein,South Africa,\N,FATP,-29.032899856567383,26.15760040283203,4547,2.0,U,Africa/Johannesburg,airport,841
Tutuka Power Station Airport,Tutuka,South Africa,\N,FATT,-26.776599884,29.3388004303,5313,2.0,U,Africa/Johannesburg,airport,842
Tzaneen Airport,Tzaneen,South Africa,LTA,FATZ,-23.8243999481,30.3292999268,1914,2.0,U,Africa/Johannesburg,airport,843
Prince Mangosuthu Buthelezi Airport,Ulundi,South Africa,ULD,FAUL,-28.3206005096,31.4165000916,1720,2.0,U,Africa/Johannesburg,airport,844
Pierre Van Ryneveld Airport,Upington,South Africa,UTN,FAUP,-28.39909935,21.2602005005,2782,2.0,U,Africa/Johannesburg,airport,845
K. D. Matanzima Airport,Umtata,South Africa,UTT,FAUT,-31.5463631849,28.6733551025,2400,2.0,U,Africa/Johannesburg,airport,846
Vryburg Airport,Vryburg,South Africa,VRU,FAVB,-26.9824008942,24.7287998199,3920,2.0,U,Africa/Johannesburg,airport,847
